,placeId,placeName,linkPlaceId,pinCode,mandalName,latitude,longitude,stateCode,district
0,229376,VUTAGEDDA-VPLM JN,229376,531021,PARAVADA,17.61426,83.07224,AP,ANAKAPALLI
1,1668645651080,YSR TRUST,1668645651080,522503,MANGALAGIRI,16.45875,80.540654,AP,GUNTUR
2,229383,PEDDIPALEM,229383,531113,MAKAVARAPALEM,17.651490,82.731860,AP,ANAKAPALLI
3,1666704412369,SAGIPADU X ROAD,1666704412369,534186,UNDI,16.69938,81.46355,AP,WEST GODAVARI
4,1643092610699,VENGANNAPALEM-UDG,1643092610699,524222,DUTTALUR,14.947584,79.470890,AP,SPS NELLORE
5,16391,YERRAGUNTLA,16391,516247,YERRAGUNTLA,14.637596,78.540709,AP,YSR KADAPA
6,229391,POLAVARAM,229391,532201,TEKKALI,18.3017,84.00661,AP,SRIKAKULAM
7,229389,NANDIGAM,229389,532203,NANDIGAM,18.5140333,83.4903200,AP,SRIKAKULAM
8,16401,YERRAVALLI X RD,16401,509125,MAHABOOB NAGAR,16.147181,77.906723,TS,MAHABOOB NAGAR
9,229399,GADARADA,229399,533289,KORUKONDA,17.156606,81.890372,AP,EAST GODAVARI
10,21,AKAVEEDU,21,534235,AKAVEEDU,16.58130689,81.382218,AP,WEST GODAVARI
11,229398,VEMULAKONDA,229398,533288,RAMPACHODAVARAM,17.428625,81.687586,AP,ASR
12,229403,BODULURU,229403,533295,MAREDUMILLI,17.6613180,81.7175340,AP,ASR
13,229402,KATAVARAM,229402,533293,SEETHANAGARAM,17.1140630,81.7363010,AP,EAST GODAVARI
14,229400,BOLLEDDUPALEM,229400,533290,KORUKONDA,17.223195,81.782320,AP,EAST GODAVARI
15,229406,PANDIRIMAMIDIKOTA,229406,533295,MAREDUMILLI,17.638272,81.802431,AP,ASR
16,229404,DEVARAPALLE,229404,533295,MAREDUMILLI,17.521997,81.723899,AP,ASR
17,16421,YELAMANCHILI BY PASS,16421,531055,YELAMANCHILI,17.564800,82.861300,AP,WEST GODAVARI
18,229414,GUTTULAPUTTU,229414,531024,PADERU,18.11885,82.65793,AP,ASR
19,229419,GUMMADIKONDA JN,229419,531115,NATHAVARAM,17.55825,82.45096,AP,ANAKAPALLI
20,41,ABBAIPALEM,41,,,,,TS,
21,229431,GOLUGONDA,229431,531084,GOLUGONDA,17.678599,82.472842,AP,ANAKAPALLI
22,229429,ZILLEDIPUDI,229429,531115,NATHAVARAM,17.54702,82.56707,AP,ANAKAPALLI
23,1676222056239,INNER RING ROAD,1676222056239,521212,VIJAYAWADA RURAL,16.548593,80.655237,AP,NTR
24,16441,ZAHIRABAD BUS STAND,16441,,,,,TS,HO
25,1668653089478,BANGLAVOORU ,1668653089478,517424,VENKATAGIRIKOTA,12.972797,78.515088,AP,CHITTOOR
26,229432,KMSTONE,229432,531116,GOLUGONDA,15.8561560,78.2868170,AP,ANAKAPALLI
27,1646045511348,KOMMADI,1646045511348,530048,VISAKHAPATNAM URBAN,17.823998,83.356563,AP,VISAKHAPATNAM
28,1668748232862,MURIKIMALLA,1668748232862,523368,PULLALACHERUVU,16.1914610,79.2878110,AP,PRAKASAM
29,229443,SODA,229443,532214,PATHAPATNAM,18.7370870,84.0221820,AP,SRIKAKULAM
30,16451,JEELAKARRA GUDEM,16451,534449,KAMAVARAPUKOTA,17.012929,81.127608,AP,ELURU
31,1696598033629,RAMPALLI X ROAD,1696598033629,518390,TUGGALI,15.326572,77.635092,AP,KURNOOL
32,1602138441688,PEDDY REDDY PALLI-UDGR,1602138441688,524236,UDAYAGIRI,15.070309,79.288563,AP,SPS NELLORE
33,1666706345663,NANDAMURU,1666706345663,521311,UNGUTUR,16.2868560,81.1991520,AP,KRISHNA
34,229455,VEERAVALLIPALEM,229455,533211,AINAVILLI,16.6887730,82.0013970,AP,KONASEEMA
35,229454,MOGALLAMURU,229454,533210,ALLAVARAM,16.4726,81.9835,AP,KONASEEMA
36,1388062650359,KANIPAKAM PACKAGE,1388062650359,,,,,AP,HO
37,229452,KOTHATHUNGAPADU,229452,533124,RAJANAGARAM,16.979052,81.898904,AP,EAST GODAVARI
38,81,ACHAMPET,81,509375,ACHAMPETA,16.399,78.637,TS,MAHABOOB NAGAR
39,229457,GANDI,229457,533212,KATRENIKONA,16.59316,82.2637383,AP,KONASEEMA
40,229462,SAVARRAPALEM,229462,533213,UPPALAGUPTAM,16.5632,82.0506,AP,KONASEEMA
41,229461,BANDARUPETA,229461,533213,UPPALAGUPTAM,16.487065,82.071625,AP,KONASEEMA
42,16471,BAILDILLA,16471,,,,,CG,DANTEWADA
43,1678705728371,NAGULAVARAM_1,1678705728371,522649,VINUKONDA,16.510728,79.304316,AP,PALNADU
44,1668795714082,GULAVAI X ROAD,1668795714082,534444,VELERPADU,17.498252,81.235002,AP,ELURU
45,229474,BUTCHAYYAPETA,229474,531026,BUTCHAYYAPETA,17.789560,82.879170,AP,ANAKAPALLI
46,16481,JAGADALPUR,16481,494001,JAGADALPUR,19.076164,82.015960,CG,BASTAR
47,229491,BRAHMANATARLA,229491,532220,PALASA,18.747536,84.386459,AP,SRIKAKULAM
48,16501,SUKMA,16501,494111,SUKMA,18.392586,81.658882,CG,SUKMA
49,229499,MALLAVARAM,229499,533285,GOKAVARAM,17.299285,81.981946,AP,EAST GODAVARI
50,121,ADDA ROAD,121,531083,S RAYAVARAM,17.431025,82.744844,AP,ANAKAPALLI
51,16511,GOA,16511,,,,,GA,HO
52,229500,NELLIPUDI,229500,533285,GANGAVARAM,17.316615,81.919940,AP,ASR
53,229507,PEDA MADINA,229507,531026,BUTCHAYYAPETA,17.764628,82.864656,AP,ANAKAPALLI
54,229505,GOMPA JN,229505,531025,BUTCHAYYAPETA,17.739874,82.803691,AP,ANAKAPALLI
55,229504,NAGAMPALLI,229504,533286,SEETHANAGARAM,17.218157,81.747812,AP,EAST GODAVARI
56,229510,KINTHALI,229510,531025,MADUGULA,17.855701,82.747220,AP,ANAKAPALLI
57,229508,TURAKALAPUDI,229508,531026,BUTCHAYYAPETA,17.731672,82.830770,AP,ANAKAPALLI
58,1388063682241,BELUM CAVES PACKAGE,1388063682241,518122,KOLIMIGUNDLA,15.105474,78.115194,AP,NANDYAL
59,1670829130785,M V PURAM,1670829130785,507209,KALLUR,17.153405,80.595638,TS,KHAMMAM
60,16521,GOA -PANAJI,16521,,,,,GA,HO
61,1590823282063,VISWABHARATHI HOSPITAL-KRNL,7921,518467,KODUMUR,15.744700,77.882281,AP,KURNOOL
62,1673509135845,DODDERI,1673509135845,577522,CHELLAKERA,14.2953910,76.7037540,KA,CHITRADURGA
63,229512,MADUGULA,229512,531027,MADUGULA,17.915535,82.812274,AP,ANAKAPALLI
64,1593083701966,RACHAPALLI JUNCTION,1593083701966,515331,HINDUPUR,13.890287,77.590475,AP,SRI SATHYA SAI
65,1691130691131,KASTURIRAJUGARIPALLI,1691130691131,516269,LAKKIREDDIPALLE,14.13814,78.66877,AP,ANNAMAYYA
66,141,ADDANKI,141,523201,ADDANKI,15.809102,79.975087,AP,BAPATLA
67,1677230539698,REMIDICHERLA,1677230539698,507201,YERRUPALEM,16.2840910,79.6479890,AP,KHAMMAM
68,1493204789284,KARLAPALEM,1493204789284,522111,KARLAPALEM,15.94085,80.53797,AP,BAPATLA
69,229527,VEERABHADRAPURAM,229527,532220,PALASA,18.742656,84.359724,AP,SRIKAKULAM
70,229526,SEETHAPURAM,229526,532222,VAJRAPUKOTHURU,18.70441,84.40247,AP,SRIKAKULAM
71,151,ADDATEEGALA,151,533428,ADDATEEGALA,17.477552,82.023808,AP,ASR
72,1674130032895,POTHANGI,1674130032895,532229,SOMPETA,18.2914550,82.7836320,AP,SRIKAKULAM
73,1676270340195,SOWBHAGYA NAGAR COLONY,1676270340195,521165,VUYYURU,16.35613,80.85108,AP,KRISHNA
74,229529,GOPPILI,229529,532221,MELIAPUTTI,18.824197,84.353626,AP,SRIKAKULAM
75,229535,TARLAKOTA,229535,532221,PALASA,18.797815,84.405810,AP,SRIKAKULAM
76,1668880453663,MALLIPALLI,1668880453663,515761,KALYANDURG,14.5313739,77.1820882,AP,ANANTAPURAMU
77,229533,RENTIKOTA,229533,532221,PALASA,18.813936,84.365757,AP,SRIKAKULAM
78,229538,BUDAMBOCOLONY,229538,532242,MANDASA,18.87914,84.41681,AP,SRIKAKULAM
79,161,ADILABAD,161,,,,,TS,
80,229536,BODDAPADU,229536,532221,PALASA,18.795061,84.453617,AP,SRIKAKULAM
81,229546,METTURU,229546,532455,KOTHURU,18.736401,83.905172,AP,SRIKAKULAM
82,171,ADONI,171,518301,ADONI,15.619032,77.285817,AP,KURNOOL
83,1668940535218,MULIKIPALLI,1668940535218,533248,RAZOLE,16.447589,81.887028,AP,KONASEEMA
84,229552,TURUVOLU,229552,531036,CHEEDIKADA,17.923960,82.924090,AP,ANAKAPALLI
85,181,AFZALGUNJ,5231,500012,NAMPALLY,17.373626,78.477678,TS,HYDERABAD
86,1452667713572,EDUMUDI,1452667713572,523186,NAGULUPPALAPADU,15.7299,80.1708,AP,PRAKASAM
87,229578,LAXMIPURAM,229578,532243,MANDASA,18.828628,84.550967,AP,SRIKAKULAM
88,201,AHOBHILAM,201,518543,ALLAGADDA,15.13519129,78.67577813,AP,NANDYAL
89,229580,RATTI,229580,532243,MANDASA,18.819970,84.554338,AP,SRIKAKULAM
90,229587,KORANJIBADRA,229587,532242,SOMPETA,18.943768,84.49236,AP,SRIKAKULAM
91,229586,GOWDUGURANTI,229586,532264,MANDASA,18.95584,84.43461,AP,SRIKAKULAM
92,1593765237357,EDURU,1593765237357,534131,ATTILI,16.895160,81.365080,AP,WEST GODAVARI
93,229591,UPPALAPADU-ASGM,229591,524301,ANANTHASAGARAM,14.527502,79.358463,AP,SPS NELLORE
94,229595,AMANICHIRUVELLA,229595,524403,ANANTHASAGARAM,14.626417,79.428912,AP,SPS NELLORE
95,229594,SANJEEVANAGAR,229594,524302,ANANTHASAGARAM,14.59955,79.395024,AP,SPS NELLORE
96,229592,GOGULAPALLI,229592,524302,ANANTHASAGARAM,14.621103,79.299156,AP,SPS NELLORE
97,229599,AKKAGARIPETA,229599,517642,PELLAKURU,13.806687,79.777422,AP,TIRUPATHI
98,229600,GEMMELI,229600,531029,G MADUGULA,17.93276,82.52183,AP,ASR
99,229606,KOKKIRAPALLI,229606,531055,G MADUGULA,17.992240,82.474460,AP,ASR
100,1396584000332,GOLLAPALEM-KKD,1396584000332,533468,KAJULURU,16.854200,82.168634,AP,KAKINADA
101,1669022570507,PALUDEVARLAPADU,1669022570507,522408,MUPPALLA,16.3277706,80.1255649,AP,PALNADU
102,229623,GADE PALLE,229623,531040,PEDABAYALU,18.2232,82.54141,AP,ASR
103,229622,DUDUMA,229622,531040,MUNCHINGIPUTTU,18.5216240,82.4501740,AP,ASR
104,229621,DOLLIPUTTU,229621,531040,MUNCHINGIPUTTU,18.40847,82.51835,AP,ASR
105,229624,GADUGU PALLE,229624,531040,PEDABAYALU,18.21048,82.54094,AP,ASR
106,1668606607821,K.M.STONE-LAXMAPURAM,1668606607821,518401,NANDIKOTKUR,,,AP,NANDYAL
107,1542467314257,SAPTA SRINIVASA KSHETRALA DARSINI,1542467314257,,,,,AP,HO
108,229632,REKHADEVIPURAM,229632,532291,KANCHILI,19.033234,84.566118,AP,SRIKAKULAM
109,1679053025246,THUNUGUNTA_1,1679053025246,523116,LINGASAMUDRAM,15.08253,79.786664,AP,SPS NELLORE
110,229639,RATTAKANNA,229639,532312,ICHAPURAM,19.1121450,84.6677530,AP,SRIKAKULAM
111,261,ALAKAPURI,261,,,,,TS,
112,229636,CHEEKATIBALARAMPURAM,229636,532312,ICHAPURAM,19.074799,84.660162,AP,SRIKAKULAM
113,229643,KAVITY X ROAD,229643,761006,KAVITI,19.059627,84.646525,AP,SRIKAKULAM
114,229642,KAVITIGATE,229642,532220,NANDIGAM,18.72254,84.38704,AP,SRIKAKULAM
115,229647,KARIKADU,229647,524123,DORAVARISATRAM,13.82316582,80.08199307,AP,TIRUPATHI
116,271,ALAMPUR,271,509152,ALAMPUR,15.879089,78.131976,TS,JOGULAMBA GADWAL
117,229651,KOLANUKUDURU,229651,524308,MANUBOLU,14.201760,79.951770,AP,SPS NELLORE
118,229649,ILLUPURU,229649,524121,SULLURPETA,13.717667,79.976107,AP,TIRUPATHI
119,1669101412005,K M STONE,1669101412005,517418,THAMBALLAPALLE,15.6100720,79.0539740,AP,ANNAMAYYA
120,229654,PERITIPADU,229654,524308,SULLURPETA,13.701493,79.958097,AP,TIRUPATHI
121,229653,KURICHERLAPADU,229653,524308,VENKATACHALAM,14.298267,79.8382910,AP,SPS NELLORE
122,229652,KOMARIKA,229652,524314,INDUKURPET,14.50931,80.125839,AP,SPS NELLORE
123,281,ALAMPUR X RD,281,,,15.91682,78.01924,TS,
124,291,ALAMURU,291,533233,ALAMURU,16.787170,81.883140,AP,KONASEEMA
125,1676274616687,MILE STONE MADDURU,1676274616687,521151,KANKIPADU,,,AP,KRISHNA
126,301,ALAPADU,301,534001,KAIKALUR,16.5788603,81.3219214,AP,ELURU
127,1695367199590,CHINNAVENTHULA,1695367199590,516432,MYLAVARAM,15.0114,78.26201,AP,YSR KADAPA
128,229685,MOFASBANDAR,229685,532401,SRIKAKULAM,18.2296,83.9354,AP,SRIKAKULAM
129,311,ALIPIRI-GARUDA CIRCLE,14911,517507,TIRUPATI URBAN,13.647051,79.406058,AP,TIRUPATHI
130,1640685666362,PRAKASHRAOPALEM,1640685666362,534112,NALLAJERLA,16.915960,81.432300,AP,EAST GODAVARI
131,1593432244157,PASALAPUDI,1593432244157,533261,RAYAVARAM,16.843047072978216,82.00592312961817,AP,KONASEEMA
132,1668614177178,SRIRANGARAJUPALLI,1668614177178,515261,PARIGI,13.859801,77.439118,AP,SRI SATHYA SAI
133,1492845876460,RANGAMPETA,12461,533437,RANGAMPETA,17.07347,82.155045,AP,EAST GODAVARI
134,1667539009965,NALLAPADU,1667539009965,522005,GUNTUR,16.3003340,80.3864040,AP,GUNTUR
135,229694,GARAPETA,229694,532405,PONDURU,18.318540,83.708800,AP,SRIKAKULAM
136,229693,BURAVALLI,229693,532404,GARA,18.372957,84.23375,AP,SRIKAKULAM
137,1593430310804,YERRAKONERU,1593430310804,533401,TUNI,17.3221970,82.4794640,AP,KAKINADA
138,1674542965324,THIMMAMPALLI,1674542965324,561207,BAGEPALLI,13.8551988,77.9172582,KA,CHIKBALLAPUR
139,321,ALLAGADDA,321,518543,ALLAGADDA,15.131888,78.504351,AP,NANDYAL
140,229696,THONANGI,229696,532406,GARA,18.308990,84.091430,AP,SRIKAKULAM
141,1723561528471,N GUNDLAPALLI,1723561528471,515741,BELUGUPPA,14.704312,77.054040,AP,ANANTAPURAMU
142,1593996091813,SOMAYAJULAPALLI,1593996091813,518010,ORVAKAL,15.5807391,78.1762397,AP,KURNOOL
143,229702,NEW BRIDGE,229702,524310,CHILLAKUR,14.241810,80.108090,AP,TIRUPATHI
144,229701,NERINIMITTAKANDRIGA,229701,524121,TADA,13.649380,79.960321,AP,TIRUPATHI
145,229704,PEDURU,229704,524311,THOTAPALLIGUDUR,14.430800,80.076343,AP,SPS NELLORE
146,229711,RAMUDU PALEM,229711,524313,INDUKURPET,14.546686,80.16622,AP,SPS NELLORE
147,229723,CHINA NANDIPALLI,229723,531030,DEVARAPALLE,17.946530,82.981640,AP,ANAKAPALLI
148,229722,ATCHAYYAPALM,229722,531030,DEVARAPALLE,17.964960,83.013390,AP,ANAKAPALLI
149,1668652008372,PONNAI,1668652008372,632514,KATPADI,13.126864,79.255352,TN,VELLORE
150,229720,YELAMAGARUVU,229720,531029,G MADUGULA,,,AP,ASR
151,1668863020839,KM STONE MUNDRIGI,1668863020839,583101,BALLARY,,,KA,HO
152,229731,KANNURUPALEM,229731,531026,KASIMKOTA,17.634549,82.818406,AP,ANAKAPALLI
153,1676128272864,ENDADA,1676128272864,530048,VISAKHAPATNAM URBAN,17.78199543,83.3586359,AP,VISAKHAPATNAM
154,1372153707238,UNGUTUR,1372153707238,534411,UNGUTUR,16.823700,81.422745,AP,KRISHNA
155,229729,G BHEEMAVARAM,229729,531031,KASIMKOTA,17.668615,82.964138,AP,ANAKAPALLI
156,229735,CHERUKUR,229735,515124,RODDAM,13.99794,77.41896,AP,SRI SATHYA SAI
157,1435235199625,SEETHARAMPURAM,15881,521110,NUZVID,16.6776100,80.9511090,AP,ELURU
158,1593339951724,KHANDAVILLI,1593339951724,534330,PERAVALI,16.7249,81.77158,AP,EAST GODAVARI
159,361,ALURU,361,518395,ALUR,15.399404,77.223255,AP,KURNOOL
160,229743,KADIRIDEVARAPALLE,229743,515133,KOTHACHERUVU,14.21148,77.7023,AP,SRI SATHYA SAI
161,229742,K.LOCHARLA,229742,515133,KOTHACHERUVU,14.167766,77.733422,AP,SRI SATHYA SAI
162,1668615700939,KARIDIKONDA,1668615700939,518465,DEVANAKONDA,15.5795533,77.5779183,AP,KURNOOL
163,1678080259476,MALAYANUR-T,1678080259476,515766,KUNDURPI,14.258826,76.989250,AP,ANANTAPURAMU
164,229744,KOTHADEVARAPALLI,229744,515133,KOTHACHERUVU,14.2069350,77.7053160,AP,SRI SATHYA SAI
165,229748,TALAMARLA,229748,515133,KOTHACHERUVU,14.2142490,77.7247770,AP,SRI SATHYA SAI
166,229759,MARALA,229759,515154,BUKKAPATNAM,14.282763,77.964796,AP,SRI SATHYA SAI
167,381,AMALAPURAM,381,533201,AMALAPURAM,16.579884,81.998029,AP,KONASEEMA
168,229763,NELAKOTA,229763,515159,DHARMAVARAM,14.3320560,77.8480520,AP,SRI SATHYA SAI
169,391,AMARAPURAM,391,515281,AMARAPURAM,14.1280082,76.9786867,AP,SRI SATHYA SAI
170,1466166779531,THURIMELLA,1466166779531,523372,CUMBUM,15.522867,78.986237,AP,PRAKASAM
171,1669376274072,SRIHARIPURM,1669376274072,517586,VIJAYAPURAM,13.2309727,79.7688212,AP,CHITTOOR
172,401,AMARAVATHI,401,522020,AMARAVATI,16.56961,80.35854,AP,PALNADU
173,1669019212123,K M STONE,1669019212123,515842,ANANTAPUR,15.6100720,79.0539740,AP,ANANTAPURAMU
174,229781,MALLAPALLE,229781,515231,GORANTLA,13.9723,77.736754,AP,SRI SATHYA SAI
175,229787,KRISHANAMAREDDI PALLI,229787,515001,ANANTAPUR,14.592431,77.663859,AP,ANANTAPURAMU
176,1668613554434,DHANAPURAM,1668613554434,518301,ADONI,15.56322,77.26191,AP,KURNOOL
177,411,AMBAJIPET,411,533214,AMBAJIPETA,16.595842,81.946599,AP,KONASEEMA
178,229784,MUNNALURU XRD MUNNALURU ,229784,521456,KANCHIKACHERLA,16.630565,80.343280,AP,NTR
179,229790,BUKKACHERLA,229790,515001,RAPTADU,14.589111,77.551371,AP,ANANTAPURAMU
180,1669008939145,PANJAM X-ROAD,1669008939145,524132,VENKATAGIRI,13.932390,79.657010,AP,TIRUPATHI
181,1594001449266,RAMALLAKOTA,1594001449266,518217,KURNOOL,15.5708267,78.0010550,AP,KURNOOL
182,1668615045395,KOTHIRALLA,1668615045395,518380,PATTIKONDA,15.417510,77.497000,AP,KURNOOL
183,229793,GUVVALAGONDIPALLI,229793,515101,CHENNEKOTHAPALLE,14.2391,77.51666,AP,SRI SATHYA SAI
184,229792,SYNDICATENAGAR,229792,515004,ANANTAPUR,14.6980614,77.5584346,AP,ANANTAPURAMU
185,229799,CHAKARLAPALLI,229799,515122,SOMANDEPALLI,13.995225,77.581982,AP,SRI SATHYA SAI
186,421,AMBAVARAM,421,523112,CHANDRASEKHARA PURAM,15.123206,79.172456,AP,PRAKASAM
187,229798,BRAMANAPALLI,229798,515122,SOMANDEPALLI,13.966072,77.573144,AP,SRI SATHYA SAI
188,229797,BRAHMANAPALLE,229797,515122,SOMANDEPALLI,13.966530,77.573290,AP,SRI SATHYA SAI
189,1668476926171,BATHULAVALLAM,1668476926171,524124,TADA,13.59004893,80.00396112,AP,TIRUPATHI
190,229804,PATHARLAPALLI,229804,515123,RODDAM,14.091242,77.478632,AP,SRI SATHYA SAI
191,1676130795802,EM PALEM ROAD ,1676130795802,530016,GAJUWAKA,17.688920,83.113410,AP,VISAKHAPATNAM
192,1669105213019,M.D.OFFICE RODDAM,1669105213019,515123,RODDAM,14.09379,77.41612,AP,SRI SATHYA SAI
193,229815,HIRETHURPI,229815,515305,GUDIBANDA,14.0107382,77.1149494,AP,SRI SATHYA SAI
194,1668664116241,KMSTONE,1668664116241,518123,KOLIMIGUNDLA,15.8561560,78.2868170,AP,NANDYAL
195,229812,SUNKIREDDYPALLY,229812,515303,MADAKASIRA,13.850675,77.327276,AP,SRI SATHYA SAI
196,229819,AGALI,229819,515311,AGALI,13.7852180,77.0540860,AP,SRI SATHYA SAI
197,229818,SANKARAGALLU,229818,515305,GUDIBANDA,13.996102,77.222264,AP,SRI SATHYA SAI
198,229816,KUMBARANAGEHALLI,229816,515305,GUDIBANDA,14.01595,77.0953,AP,SRI SATHYA SAI
199,451,AMEERPET-METRO PILLER NO.1077-1078,5231,500016,HYDERABAD,17.431760,78.447569,TS,HYDERABAD
200,229831,PILLIGUNDLU,229831,515321,ROLLA,13.780149,77.1615607,AP,SRI SATHYA SAI
201,229837,CHILAMATHUR,229837,515341,CHILAMATHUR,13.839393,77.703932,AP,SRI SATHYA SAI
202,1691652087316,NARSAPUR_N,1691652087316,534275,NARASAPURAM,16.43298,81.69662,AP,WEST GODAVARI
203,229843,NAGASAMUDRAM X,229843,515401,GOOTY,15.11307,77.6028,AP,ANANTAPURAMU
204,229840,VEERAPURAM,229840,515341,CHILAMATHUR,13.759038,77.714781,AP,SRI SATHYA SAI
205,229846,DIMMAGUDI,229846,515405,PEDDAVADUGUR,14.975766,77.692198,AP,ANANTAPURAMU
206,229845,AVULAMPALLE,229845,515405,PEDDAVADUGUR,15.046242,77.663851,AP,ANANTAPURAMU
207,229844,GOOTYRS,229844,515402,GOOTY,15.143110,77.623939,AP,ANANTAPURAMU
208,229851,MIDUTHURU,229851,515405,PEDDAVADUGUR,15.0183949,77.6196544,AP,ANANTAPURAMU
209,1669612174588,STALL GIRLS HIGH SCHOOL,1669612174588,522004,GUNTUR,16.29476,80.43996,AP,GUNTUR
210,229848,KADADARAGUTTAPALLI,229848,515405,PEDDAVADUGUR,15.068955,77.765570,AP,ANANTAPURAMU
211,229858,N.CHIKKEPALLI,229858,515408,YADIKI,15.039905,77.925083,AP,ANANTAPURAMU
212,229857,KUMMETHA,229857,515408,PEDDAPAPPUR,14.971599,77.885076,AP,ANANTAPURAMU
213,229863,CHALAVEMULA,229863,515414,PUTLUR,14.748619,77.963491,AP,ANANTAPURAMU
214,229861,VENKATAMPALLE,229861,515408,TADIPATRI,15.018694,77.976679,AP,ANANTAPURAMU
215,229865,KONDUGARIKUNTA,229865,515414,PUTLUR,14.703311,77.952579,AP,ANANTAPURAMU
216,229869,BUGGA AND LNTGATE,229869,515415,TADIPATRI,15.013544,78.013792,AP,ANANTAPURAMU
217,229874,NARASAPURAM,229874,515425,NARPALA,14.24985,77.7815,AP,ANANTAPURAMU
218,229879,PEDDAPETA,229879,515408,YADIKI,15.0533610,77.838106,AP,ANANTAPURAMU
219,229876,SINGANAMALA,229876,515435,SINGANAMALA,14.8004980,77.7170580,AP,ANANTAPURAMU
220,229882,KRISHNAPURAM,229882,515465,YELLANUR,14.675643,78.089348,AP,ANANTAPURAMU
221,1676131975482,TOWN KOTH RAOD,1676131975482,530001,VISAKHAPATNAM RURAL,16.8132,80.07899,AP,VISAKHAPATNAM
222,229886,BASAMVARIPALLI,229886,515501,NALLAMADA,14.138853,77.965376,AP,SRI SATHYA SAI
223,511,ANAKAPALLI,1429657313119,531001,ANAKAPALLI,17.686173,83.002027,AP,ANAKAPALLI
224,229891,MEESALAPALLI,229891,515501,NALLAMADA,14.2084330,78.0518690,AP,SRI SATHYA SAI
225,1678959520334,GUMPARLAPADU_XRD,1678959520334,524234,KALIGIRI,14.759711,79.71526,AP,SPS NELLORE
226,229890,KOTTALA,229890,515501,NALLAMADA,14.238099,77.996378,AP,SRI SATHYA SAI
227,229889,KALASAMUDRAM,229889,515501,KADIRI,14.2053700,78.1115470,AP,SRI SATHYA SAI
228,229895,PATNAM,229895,515501,KADIRI,14.2329803,78.0944241,AP,SRI SATHYA SAI
229,229894,NALLASINGAIAHGARIPALLI,229894,515501,NALLAMADA,14.143546,77.991321,AP,SRI SATHYA SAI
230,229893,N.S.G.PALLI,229893,515501,NALLAMADA,14.165278,77.995696,AP,SRI SATHYA SAI
231,1593531811487,NADAKUDURU,1593531811487,533016,KARAPA,16.91478,82.20347,AP,KAKINADA
232,521,ANANDBAGH-MALKAJGIRI,521,500056,MALKAJGIRI,17.45822,78.53665,TS,MEDCHAL
233,229898,REDDICHERUVUKATTA,229898,515231,GORANTLA,13.9694133,77.8339283,AP,SRI SATHYA SAI
234,1620785192225,THOTALA CHERUVU PALLI,1620785192225,524236,VARIKUNTAPADU,14.950520,79.386710,AP,SPS NELLORE
235,1669805984676,CHOWTKUR 49 BANNUR,1669805984676,518405,MIDTHUR,15.73193,78.22386,AP,NANDYAL
236,229904,AGRAHARAM,229904,515321,ROLLA,13.843042,77.101028,AP,SRI SATHYA SAI
237,229918,KACHIKUNTA,229918,515281,AMARAPURAM,14.0771040,76.9940320,AP,SRI SATHYA SAI
238,1668689823281,K M STONE AMBAKAPALLI,1668689823281,516390,LINGALA,,,AP,YSR KADAPA
239,229921,KASIKUNTA,229921,515281,AMARAPURAM,14.077104,76.994032,AP,SRI SATHYA SAI
240,229927,PELUBANDA,229927,515286,AMARAPURAM,14.0451700,77.0081280,AP,SRI SATHYA SAI
241,551,ANANTAPUR,551,515001,ANANTAPUR,14.68572,77.60091,AP,ANANTAPURAMU
242,229931,NEELAKANTA PURAM,229931,515291,MADAKASIRA,13.8863846,77.2030245,AP,SRI SATHYA SAI
243,229933,BHAKTARPALLI,229933,515301,MADAKASIRA,13.879572,77.299602,AP,SRI SATHYA SAI
244,561,ANANTHAGIRI -ARAKU,561,535145,ANANTHAGIRI,18.2375293,83.009402,AP,ASR
245,1691068610618,KONDAPALLI,1691068610618,532222,VAJRAPUKOTHURU,18.785595,84.499552,AP,SRIKAKULAM
246,229947,KAMATHAMPALLE,229947,515521,GANDLAPENTA,14.1062728,78.2072491,AP,SRI SATHYA SAI
247,1668936423392,IRANBANDA ACENTER,1668936423392,518463,GONEGANDLA,15.65350,77.60363,AP,KURNOOL
248,229944,GOWDACHERVUPALLI,229944,515521,GANDLAPENTA,14.0473180,78.3113110,AP,SRI SATHYA SAI
249,571,ANANTHAPALLY,571,534111,NALLAJERLA,16.97593,81.4453,AP,EAST GODAVARI
250,1425477052026,MODH,1425477052026,,,,,MH,
251,1686982280268,MILESTONE MTM,1686982280268,521001,MACHILIPATNAM,,,AP,KRISHNA
252,581,ANANTHAVARAM,581,522410,THULLUR,16.511968,80.433180,AP,GUNTUR
253,229958,PEDABALLIKOTHAPALLE,229958,515521,NAMBULIPULIKUNTA,14.0285380,78.3962110,AP,SRI SATHYA SAI
254,591,ANAPARTHI,591,533342,ANAPARTHI,16.9325616,81.9567666,AP,EAST GODAVARI
255,1447740413700,MANYASEEMA,1447740413700,533295,MAREDUMILLI,17.595747,81.718514,AP,ASR
256,601,ANATHAVARAM,601,533201,MUMMIDIVARAM,16.605627,82.056115,AP,KONASEEMA
257,229977,AMADAGUR,229977,515556,AMADAGUR,13.8881440,78.0224820,AP,SRI SATHYA SAI
258,1388062895578,ARAKU PACKAGE,1388062895578,,,,,AP,HO
259,229994,CHERLOPALLI,229994,515561,OBULADEVARACHERUVU,14.2282550,79.8720900,AP,SRI SATHYA SAI
260,621,ANGALLU,621,517325,KURABALAKOTA,13.6298,78.48541,AP,ANNAMAYYA
261,1676275468837,MILE STONE KAVULURU,1676275468837,521228,IBRAHIMPATNAM,,,AP,NTR
262,1669022292622,SANKARAPURAM,1669022292622,522414,DACHEPALLI,16.6284644,79.7307725,AP,PALNADU
263,230001,BALIJA PALLI,230001,515521,NAMBULIPULIKUNTA,14.256723,78.321022,AP,SRI SATHYA SAI
264,631,ANKALAMMA GUDUR,631,516484,SIMHADRIPURAM,14.57182,78.17592,AP,YSR KADAPA
265,230009,KONDAKAMARLA,230009,515531,OBULADEVARACHERUVU,14.068091,77.956934,AP,SRI SATHYA SAI
266,230015,BASIREDDIPALLI,230015,515541,MUDIGUBBA,14.3765517,78.1032683,AP,SRI SATHYA SAI
267,641,ANNADEVARAPETA,641,534341,TALLAPUDI,17.12027,81.62241,AP,EAST GODAVARI
268,1670936168584,PALLIPALEM,1670936168584,521324,KRUTHIVENNU,16.39496659,81.46636151,AP,KRISHNA
269,1676222137774,MILESTONE-VPGUDEM,1676222137774,521286,GANNAVARAM,,,AP,KRISHNA
270,230025,VANKARAKUNTA,230025,515501,NALLAMADA,14.1941410,77.9950120,AP,SRI SATHYA SAI
271,230028,GASIGAVARI PALLI,230028,515511,MUDIGUBBA,14.2843790,77.9776280,AP,SRI SATHYA SAI
272,661,ANNARAM,661,508355,MIRYALAGUDA,16.778485,79.544199,TS,NALGONDA
273,230042,THATIMANUGUNTHA,230042,515581,NAMBULIPULIKUNTA,14.168508,78.341640,AP,SRI SATHYA SAI
274,1391163614217,TETTU,1391163614217,523291,GUDLURU,15.049274,80.001759,AP,SPS NELLORE
275,230041,SOMALAVANDLAPALLI,230041,515581,TALUPULA,14.239026,78.259489,AP,SRI SATHYA SAI
276,230047,CHAGALERU,230047,515601,CHILAMATHUR,13.903200,77.770500,AP,SRI SATHYA SAI
277,230046,GAJUKUNTAPALLI,230046,515591,OBULADEVARACHERUVU,14.0367290,78.0126120,AP,SRI SATHYA SAI
278,671,ANAMASAMUDRAMPETA,671,524304,ATMAKUR N,14.690740,79.677060,AP,SPS NELLORE
279,230051,NIDHANAWADA,230051,515611,SINGANAMALA,14.901574,77.734224,AP,ANANTAPURAMU
280,1672210977965,MURAVANI,1672210977965,583114,SIRIGUPPA,15.79343,77.0304,KA,BALLARY
281,230055,KONDAPURAM,230055,515621,RAMAGIRI,14.29179,77.36282,AP,SRI SATHYA SAI
282,230054,K.M.STONE,230054,515621,KANAGANAPALLE,15.41744,77.22938,AP,SRI SATHYA SAI
283,230053,GUNTHAPALLI,230053,515641,KANAGANAPALLE,14.504289,77.428966,AP,SRI SATHYA SAI
284,230058,VEPAKUNTA,230058,515621,KANAGANAPALLE,14.446079,77.525845,AP,SRI SATHYA SAI
285,681,ANNAVARAM,681,533406,SANKHAVARAM,17.280507,82.403592,AP,KAKINADA
286,230057,REDDIVARIPALLI,230057,515621,RAMAGIRI,14.281028,77.376636,AP,SRI SATHYA SAI
287,230056,KONETINAYANIPALYAM,230056,515621,KANAGANAPALLE,14.3886250,77.3297140,AP,SRI SATHYA SAI
288,230063,GOLLAPALLI,230063,515110,PENUKONDA,14.17150,77.60066,AP,SRI SATHYA SAI
289,1429657902499,BANGALORE,1386430615487,560009,BENGALURU,12.971677,77.595406,KA,BENGALURU
290,230060,CHILLAVARIPALLE,230060,515631,TADIMARRI,14.561005,77.857229,AP,SRI SATHYA SAI
291,230067,MEDAPURAM,230067,515651,CHENNEKOTHAPALLE,14.333297,77.713293,AP,SRI SATHYA SAI
292,230065,BASAMPALLI,230065,515651,DHARMAVARAM,14.312720,77.749297,AP,SRI SATHYA SAI
293,230064,KONDAPALLI,230064,515641,KANAGANAPALLE,14.539491,77.389565,AP,SRI SATHYA SAI
294,230070,CHERLOPALLI,230070,515661,BATHALAPALLI,14.2282550,79.8720900,AP,SRI SATHYA SAI
295,230069,PYADINDI-CHANDAMURU,230069,515651,CHENNEKOTHAPALLE,14.34088,77.672789,AP,SRI SATHYA SAI
296,230074,BILVAMPALLI-BILVAMPALLI THANDA,230074,515651,DHARMAVARAM,14.338710,77.830380,AP,SRI SATHYA SAI
297,230072,VENKATAGARIPALLI,230072,515661,BATHALAPALLI,14.533120,77.775550,AP,SRI SATHYA SAI
298,1540194097505,NARAYANA VANAM BYPASS,1540194097505,517581,NARAYANAVANAM,13.41566,79.59577,AP,TIRUPATHI
299,1668621697697,SALKAPURAM,1668621697697,518001,KURNOOL,15.7840983,77.9529300,AP,KURNOOL
300,230082,KONDAPURAM,230082,515701,BUKKARAYA SAMUDRAM,14.865947,77.906546,AP,ANANTAPURAMU
301,230085,KADADARAKUNTA,230085,515711,KUDERU,14.73481959,77.39750348,AP,ANANTAPURAMU
302,1405596010381,PEDAVURA,1405596010381,508266,NALGONDA,16.72934,79.20829,TS,NALGONDA
303,1676275419778,GASPIPE LINE,1676275419778,521228,IBRAHIMPATNAM,16.61423,80.5871,AP,NTR
304,1663484398636,KANNAMANGALAM,1663484398636,632315,KANNAMANGALAM,12.747056,79.151915,TN,TIRUVANNAMALAI
305,230095,RAMDASUPETA,230095,515731,GARLADINNE,14.8662380,77.5913500,AP,ANANTAPURAMU
306,1669621202533,GOSANIPALLE1,1669621202533,518222,DHONE,15.348280,77.866080,AP,NANDYAL
307,230092,HAMPAPURAM,230092,515722,RAPTADU,14.555692,77.623929,AP,ANANTAPURAMU
308,230099,KM STONE-KALVAPALLI,230099,515741,BELUGUPPA,,,AP,ANANTAPURAMU
309,230098,DUDDEKUNTA,230098,515741,BELUGUPPA,14.67490,77.22172,AP,ANANTAPURAMU
310,230097,ANKAMPALLE,230097,515741,BELUGUPPA,14.70325934,77.2300877,AP,ANANTAPURAMU
311,1658153128688,SANJEEVARAOPETA,1658153128688,523369,GIDDALUR,15.282643,78.89345,AP,PRAKASAM
312,1669031090512,PAYALCENTER ARUNDHATHIWADA,1669031090512,517526,YERPEDU,13.64356,79.60709,AP,TIRUPATHI
313,230106,UPPUVANKA,230106,515761,KALYANDURG,14.528710,77.100860,AP,ANANTAPURAMU
314,1668532666134,MAMNOOR,1668532666134,507202,KHAMMAM,16.8946,80.488266,TS,KHAMMAM
315,1674469809523,AP MODEL SCHOOL_DURGI,1674469809523,522612,DURGI,16.431428,79.526979,AP,PALNADU
316,1594187755350,KALYAM,1594187755350,515865,D HIREHAL,14.79658207,76.8542321,AP,ANANTAPURAMU
317,731,APPANAPALLI,731,533247,MAMIDIKUDURU,16.529381,81.923743,AP,KONASEEMA
318,230111,IDUKAL,230111,515767,SETTUR,14.5341997,77.0654862,AP,ANANTAPURAMU
319,230109,GUDIPALLI,230109,515763,BRAHMASAMUDRAM,14.623270,76.977761,AP,ANANTAPURAMU
320,1668784752648,PALAVENKATAPURAM,1668784752648,515863,BRAHMASAMUDRAM,14.5003680,76.9877950,AP,ANANTAPURAMU
321,230108,BOMMAGANIPALLI,230108,515763,BRAHMASAMUDRAM,14.596336,77.0335609,AP,ANANTAPURAMU
322,230115,KENCHAMPALLI,230115,515766,KUNDURPI,14.25941,77.08159,AP,ANANTAPURAMU
323,1671696694151,MUKKUNDRAM,1671696694151,632602,GUDIYATHAM,12.980933,78.86237,TN,VELLORE
324,230114,TENAGAL,230114,515765,KUNDURPI,14.350670,77.113220,AP,ANANTAPURAMU
325,230113,RUDRAMPALLI,230113,151761,KUNDURPI,14.398900,77.118040,AP,ANANTAPURAMU
326,230116,MALAYANUR,230116,515766,KUNDURPI,14.258826,76.989250,AP,ANANTAPURAMU
327,230120,PERUGUPALYAM,230120,515767,SETTUR,14.366296,76.925512,AP,ANANTAPURAMU
328,1503386667876,DODDABALLAPUR CROSS,21531,561203,DODDABALLAPUR,13.301947,77.550748,KA,BENGALURU
329,230130,SAMACHENUBAILU,230130,515571,THANAKAL,14.0338900,78.2338660,AP,SRI SATHYA SAI
330,1388551704470,DBS COMPLEX,1388551704470,530004,VISAKHAPATNAM RURAL,17.722410,83.305310,AP,VISAKHAPATNAM
331,761,ARAKU,761,531149,ARUKU VALLEY,18.333771,82.865781,AP,ASR
332,230143,POOLAVANDLAPALLI,230143,515581,TALUPULA,14.26149,78.31503,AP,SRI SATHYA SAI
333,1674651347845,KUPPAM ,1674651347845,516259,CHAKRAYAPET,14.217785,78.481710,AP,YSR KADAPA
334,230147,VENKATAMPALLI,230147,515761,KAMBADUR,14.551500,77.110735,AP,ANANTAPURAMU
335,230146,PEAPILI CROSS,230146,515832,VAJRAKARUR,14.9791617,77.3190834,AP,ANANTAPURAMU
336,771,ARANDALPET,771,522002,GUNTUR,16.302122,80.439204,AP,GUNTUR
337,230151,CHADAM GATE,230151,515865,RAYADURG,14.758541,76.847940,AP,ANANTAPURAMU
338,230150,TALLAKERA,230150,515863,GUMMAGATTA,14.5756020,76.8220420,AP,ANANTAPURAMU
339,230149,GONABHAVI,230149,515863,GUMMAGATTA,14.592436,76.873235,AP,ANANTAPURAMU
340,230148,GULAPALEM,230148,515842,VAJRAKARUR,15.09243417,77.36788116,AP,ANANTAPURAMU
341,1669025372969,PULLAMMA KUNTA,1669025372969,522412,RAJUPALEM,16.395885,80.013601,AP,PALNADU
342,230155,NALLAMPALLI,230155,515865,KANEKAL,14.774614,76.970494,AP,ANANTAPURAMU
343,230154,MURADI,230154,515865,D HIREHAL,14.8034700,76.8937570,AP,ANANTAPURAMU
344,230153,KARISURAIAHDODDI,230153,515865,GUMMAGATTA,14.660263,76.813535,AP,ANANTAPURAMU
345,230159,VEPARALLACROSS-GUNDLAPALLI,230159,515867,RAYADURG,14.703198,77.051107,AP,ANANTAPURAMU
346,781,ARASAVILLI,781,532401,SRIKAKULAM,18.288141,83.913580,AP,SRIKAKULAM
347,230157,RAYADURG,230157,515865,RAYADURG,14.698170,76.850210,AP,ANANTAPURAMU
348,791,ARMOOR,791,,,18.78818,78.29121,TS,
349,230171,CHUKKAYAPALLI,230171,516127,PENAGALUR,14.3699,79.24026,AP,ANNAMAYYA
350,230168,KOMMANAVARIPALLE,230168,516107,PULLAMPETA,14.13319,79.22542,AP,ANNAMAYYA
351,230175,GARUGU PALLI,230175,516267,CHITVEL,14.222051,79.311156,AP,ANNAMAYYA
352,230172,NARASINGARAJUPURAM,230172,516127,PENAGALUR,14.33103,79.25816,AP,ANNAMAYYA
353,1691812291959,GUNTAKAL-RT,1691812291959,515801,GUNTAKAL,15.161523,77.379277,AP,ANANTAPURAMU
354,1677052967554,CHINA DABBANDA,1677052967554,531163,ANANDAPURAM,17.815359,83.288765,AP,VISAKHAPATNAM
355,230176,KATTAVARI PALLI,230176,516128,CHITVEL,14.2362431,79.2851455,AP,ANNAMAYYA
356,230183,K M STONE,230183,516130,T SUNDUPALLE,15.6100720,79.0539740,AP,ANNAMAYYA
357,230180,MADITHADU,230180,516129,T SUNDUPALLE,13.98588,78.9617,AP,ANNAMAYYA
358,230195,SEVAGUD,230195,515401,GOOTY,15.1134,77.53676,AP,ANANTAPURAMU
359,230203,MACHANUR,230203,516216,PENDLIMARRI,14.500760,78.699650,AP,YSR KADAPA
360,1668936226533,D.BELEGAL MODEL SCHOOL,1668936226533,518313,KOSIGI,15.87763,77.337546,AP,KURNOOL
361,230201,DINNE PALLY,230201,516215,SAMBEPALLE,13.9757,78.82228,AP,ANNAMAYYA
362,230200,CHINNAMANDEM,230200,516214,CHINNAMANDEM,13.941400,78.684100,AP,ANNAMAYYA
363,230204,CHENNAREDDYPALLI,230204,516217,KALASAPADU,15.067755,78.957708,AP,YSR KADAPA
364,831,AS RAO NAGAR,5231,500062,HYDERABAD,17.479408,78.558026,TS,HYDERABAD
365,1697528675932,BUTHAPPAKANUMA_RT,1697528675932,515301,MADAKASIRA,13.965661,77.178892,AP,SRI SATHYA SAI
366,230210,NAKKALAGANDI,230210,516227,BADVEL,14.791029,79.048649,AP,YSR KADAPA
367,1590765069000,BANAVASI,1590765069000,518360,YEMMIGANUR,15.717709,77.42741,AP,KURNOOL
368,230219,REDDYVARIPALLI,230219,516228,B KODURU,14.935696,78.994416,AP,YSR KADAPA
369,230218,PAYALAKUNTA,230218,516193,B KODURU,14.875612,79.019014,AP,YSR KADAPA
370,1386430615487,BENGALURU,1386430615487,560009,BENGALURU,12.974843,77.571310,KA,BENGALURU
371,230217,MARATIPALLE,230217,516193,B KODURU,14.866637,78.976007,AP,YSR KADAPA
372,230222,PEDDA POLUKUNTA,230222,516233,GOPAVARAM,14.708238,79.157207,AP,YSR KADAPA
373,230220,SAVISETTIPALLE,230220,516173,B KODURU,14.978194,78.904321,AP,YSR KADAPA
374,1669621661666,CHIGURMAN1,1669621661666,518221,PEAPALLY,15.288600,77.858300,AP,NANDYAL
375,851,ASIFABAD,851,,,,,TS,
376,230231,K.RACHUPALLI,230231,516259,CHAKRAYAPET,14.2163,78.471426,AP,YSR KADAPA
377,230230,GURRAIAHGARI PALLY,230230,516259,LAKKIREDDIPALLE,14.138900,78.68688,AP,ANNAMAYYA
378,230229,CHAGALAGUTTA PALLY,230229,516257,LAKKIREDDIPALLE,14.14916,78.6896,AP,ANNAMAYYA
379,230234,NAGULA GUTTA PALLY,230234,516259,CHAKRAYAPET,14.222341,78.537969,AP,YSR KADAPA
380,230233,MEDIMAKULA KUNTA,230233,516259,LAKKIREDDIPALLE,14.16591,78.617728,AP,ANNAMAYYA
381,1551882621275,SELAM,1551882621275,636001,TAMILANADU,11.679030,78.127380,TN,SELAM
382,230239,DAM,230239,516267,GALIVEEDU,14.0315380,78.4769460,AP,ANNAMAYYA
383,1668781623803,KOTHURU GATE,1668781623803,515867,RAYADURG,14.8190184,76.8554016,AP,ANANTAPURAMU
384,1702884276509,DAVULURU CROSS ROAD,1702884276509,522304,KOLLIPARA,16.272097,80.745350,AP,GUNTUR
385,230237,REDDYVARIPALLI,230237,516259,CHAKRAYAPET,14.357643,77.348699,AP,YSR KADAPA
386,230236,PALEM,230236,516259,LAKKIREDDIPALLE,14.26592,78.62266,AP,ANNAMAYYA
387,230243,JANGAMPALLY,230243,516268,VEERABALLE,14.08945,78.82228,AP,ANNAMAYYA
388,1668532600494,AYYAVARIGUDEM,1668532600494,507202,KHAMMAM,16.921104,80.501499,TS,KHAMMAM
389,230241,THUMUKUNTA,230241,516267,GALIVEEDU,14.076959,78.476323,AP,ANNAMAYYA
390,1676276075314,KILESPURAM,1676276075314,521456,VIJAYAWADA URBAN,16.6051100,80.4866170,AP,NTR
391,230240,NULIVEEDU,230240,516267,GALIVEEDU,14.101397,78.555354,AP,ANNAMAYYA
392,230247,JAGANANNA COLONY,230247,516269,PEDDAMUDIUM,14.99894,78.50948,AP,YSR KADAPA
393,230245,VELPULA MITTA,230245,516268,VEERABALLE,14.22872,78.95681,AP,ANNAMAYYA
394,1668431836324,VINUKONDA BYPASS,1668431836324,522647,VINUKONDA,16.0556910,79.7476020,AP,PALNADU
395,230250,PARAKALABANDA BIDIKI,230250,516269,SAMBEPALLE,13.86862,78.77954,AP,ANNAMAYYA
396,230248,KOTAKADA PALLY,230248,516269,SAMBEPALLE,13.99838,78.84297,AP,ANNAMAYYA
397,230255,GALIVARIPALLY,230255,516293,VALLUR,14.443480,78.826270,AP,YSR KADAPA
398,1668648698335,AMADALA METTA,1668648698335,518134,KOILKUNTLA,15.242109,78.288874,AP,NANDYAL
399,230252,CHINNACHEPALLE,230252,516289,KAMALAPURAM,14.546140,78.604650,AP,YSR KADAPA
400,230259,P.GOPALAPURAM,230259,516312,YERRAGUNTLA,14.752161,78.465248,AP,YSR KADAPA
401,1669018983356,GGM TML MEDURU,1669018983356,521403,GAMPALAGUDEM,16.9884,80.51739,AP,NTR
402,230258,KATTA,230258,516293,VALLUR,14.57638,78.67953,AP,YSR KADAPA
403,230257,K M STONE,230257,516293,VALLUR,15.6100720,79.0539740,AP,YSR KADAPA
404,230256,JANGAMPALLE,230256,516293,VALLUR,14.581270,78.645740,AP,YSR KADAPA
405,230267,TANGUTURU,230267,516151,NANDALUR,14.2958250,79.2211170,AP,ANNAMAYYA
406,230266,CHINTHAKAYALA PALLI X,230266,516151,NANDALUR,14.323882,79.211017,AP,ANNAMAYYA
407,230264,GUNDLURU,230264,516150,RAJAMPET,14.253250,79.114790,AP,ANNAMAYYA
408,230271,G.V.SATRAM,230271,516172,MYDUKUR,14.716365,78.813881,AP,YSR KADAPA
409,230275,KESILINGAYA PALLI,230275,516173,MYDUKUR,14.76098,78.76021,AP,YSR KADAPA
410,1668774758591,KM STONE,1668774758591,518422,ATMAKUR K,,,AP,NANDYAL
411,230279,JUDGIGARI KOTTALU,230279,516175,DUVVUR,14.75676,78.72201,AP,YSR KADAPA
412,901,ASPERI,901,518347,KURNOOL,15.476154,77.390119,AP,KURNOOL
413,230278,IDAMADAKA,230278,516175,DUVVUR,14.940878,78.605234,AP,YSR KADAPA
414,230277,ONIPENTA,230277,516173,MYDUKUR,14.7898860,78.7776080,AP,YSR KADAPA
415,230276,MITTAMANIPALLE,230276,516173,MYDUKUR,14.78082,78.79594,AP,YSR KADAPA
416,1534334451609,SRAVANA LAKSHMI DARSINI,1534334451609,530001,VISAKHAPATNAM URBAN,17.74294,83.263924,AP,VISAKHAPATNAM
417,230280,KANAGUDUR,230280,516175,DUVVUR,14.91054076,78.61867494,AP,YSR KADAPA
418,1668772448409,YELLAMANDA CROSS,1668772448409,517214,YERRAVARIPALEM,13.797714,79.051416,AP,TIRUPATHI
419,1668688775059,S THIMMAPURAM,1668688775059,516444,KONDAPURAM,14.67361,78.42002,AP,YSR KADAPA
420,230285,KRISHNAMPALLI,230285,516505,PORUMAMILLA,14.905494,79.038381,AP,YSR KADAPA
421,230290,DENEPALLE,230290,516380,MUDDANUR,14.688303,78.309446,AP,YSR KADAPA
422,230294,JANGALAPALLI,230294,516411,PEDDAMUDIUM,15.00473721,78.50866716,AP,YSR KADAPA
423,230298,REGADA PALLI,230298,513432,MYLAVARAM,14.814900,78.146630,AP,YSR KADAPA
424,230296,GOLLA PALLE,230296,516432,MYLAVARAM,14.97171,78.279959,AP,YSR KADAPA
425,230303,DIGUVA KALVATALA,230303,516434,PEDDAMUDIUM,15.039000,78.339490,AP,YSR KADAPA
426,230302,THORRI VEMULA,230302,516433,MYLAVARAM,14.893000,78.329400,AP,YSR KADAPA
427,230300,CHINNA KOMERLA,230300,516433,MYLAVARAM,14.921820,78.343000,AP,YSR KADAPA
428,1668477582119,KONDURU,1668477582119,524121,SULLURPETA,13.663121,80.011892,AP,TIRUPATHI
429,230306,SUNNAPURALLAPALLE,230306,516434,JAMMALAMADUGU,14.7778,78.4236,AP,YSR KADAPA
430,230304,JAMMALAMADUGU (P),230304,516434,JAMMALAMADUGU,14.84153,78.38666,AP,YSR KADAPA
431,931,ASWAPURAM,931,,,17.8376280,80.8304040,TS,
432,1493027528094,UYYALA WADA-GDLR,1493027528094,523367,GIDDALUR,15.21764,78.895692,AP,PRAKASAM
433,1679390589272,SIKHARAM-DORNALA,1679390589272,523331,DORNALA,16.0449560,78.9176400,AP,PRAKASAM
434,230310,KORRAPADU,230310,516444,MUDDANUR,14.752070,78.247010,AP,YSR KADAPA
435,230309,KAMMAVARIPALLI,230309,516444,MUDDANUR,14.537554,78.156547,AP,YSR KADAPA
436,1668649828715,BANDA PALLI,1668649828715,517127,PUTHALAPATTU,13.304440,79.115300,AP,CHITTOOR
437,1668615389974,NEELIGUNTA,1668615389974,531117,KOTAURATLA,17.561387,82.631237,AP,ANAKAPALLI
438,230313,C.KOTHAPALLE,230313,516474,MYLAVARAM,14.92135,78.32026,AP,YSR KADAPA
439,941,ASWARAOPET,941,507301,ASWARAOPETA,17.242790,81.130080,AP,KHAMMAM
440,230323,MUNGILIPATTUKOTHAPALLE,230323,517102,CHANDRAGIRI,13.558701,79.247213,AP,TIRUPATHI
441,230321,VINJAM,230321,524228,VINJAMUR,14.837761,79.583966,AP,SPS NELLORE
442,230320,YERRAGUDI,230320,516474,KONDAPURAM,15.2723750,77.0925340,AP,YSR KADAPA
443,1669258339771,KM STONE,1669258339771,,ORVAKAL,,,AP,KURNOOL
444,1668625007615,P.R.PALLE,1668625007615,518221,PEAPALLY,15.160521,77.781106,AP,NANDYAL
445,951,ATMAKUR K,951,518422,ATMAKUR K,15.877686,78.582315,AP,NANDYAL
446,230324,THONDAWADA,230324,517505,CHANDRAGIRI,13.591775,79.338345,AP,TIRUPATHI
447,230329,RANGANADHAPURAM,230329,517102,KALAKADA,13.73415,78.77221,AP,ANNAMAYYA
448,230338,GANGADHARANELLORE,230338,517125,GANGADHARA NELLORE,13.23129,79.18152,AP,CHITTOOR
449,230337,MUDIMADUGU,230337,517124,B KOTHAKOTA,13.5717620,78.3624530,AP,ANNAMAYYA
450,1668664936041,PACHHAVA DONKA,1668664936041,523109,PONNALURU,15.21398,79.909131,AP,PRAKASAM
451,230336,SODIGANIPALLE,230336,517425,GUDUPALLE,12.753595,78.284512,AP,CHITTOOR
452,1679052942616,VENGALAPURAM_1,1679052942616,523116,LINGASAMUDRAM,15.109149,79.713173,AP,SPS NELLORE
453,1593995977510,GUTTAPADU,1593995977510,518010,ORVAKAL,15.66519,78.16474,AP,KURNOOL
454,1415446007206,PARITALA TVR,1415446007206,521180,KANCHIKACHERLA,16.659586,80.410756,AP,NTR
455,230346,PUTHRAMADDI,230346,517129,IRALA,13.322201,78.992198,AP,CHITTOOR
456,1669381860516,NADIMPALLI,1669381860516,517423,SANTHIPURAM,12.857702,78.375246,AP,CHITTOOR
457,971,ATMAKUR N,971,524322,ATMAKUR N,14.624952,79.622177,AP,SPS NELLORE
458,1640686600767,KAPAVARAM JUNCTION,1640686600767,534342,KOVVUR,17.020996,81.665693,AP,EAST GODAVARI
459,1668689774561,KMSTONE,1668689774561,518176,BANAGANAPALLE,15.8561560,78.2868170,AP,NANDYAL
460,1674046490298,POTHINEEDIPALEM,1674046490298,534176,NALLAJERLA,17.016423,81.391004,AP,EAST GODAVARI
461,230350,DEVARAJAPURAM,230350,517401,KUPPAM,12.761662,78.563511,AP,CHITTOOR
462,230349,GUNDLAKUNTAPALLE,230349,517152,KALAKADA,13.76583,78.68054,AP,ANNAMAYYA
463,230348,KOTHAPALLI,230348,517130,IRALA,13.426750,79.044565,AP,CHITTOOR
464,230355,MANGUNTA,230355,517167,SRIRANGARAJAPURAM,13.319963,79.309272,AP,CHITTOOR
465,1593533809828,PRATAPNAGAR BRIDGE,1593533809828,533003,KAKINADA RURAL,16.971119,82.21926,AP,KAKINADA
466,1668658659742,B YALERU,1668658659742,515751,RAPTADU,14.6295646,77.5081055,AP,ANANTAPURAMU
467,981,ATMAKUR ATP,981,515751,ATMAKUR,14.645383,77.356098,AP,ANANTAPURAMU
468,230363,PALUGURALLAPALLE(PARTIV,230363,516503,BRAHMAMGARIMATTAM,14.898779,78.922854,AP,YSR KADAPA
469,1676131779427,AMARAVATHI COLONY,1676131779427,530048,VISAKHAPATNAM URBAN,17.925370,83.353250,AP,VISAKHAPATNAM
470,230362,KATTAKINDAPALLI,230362,516503,MYDUKUR,14.7189,78.86337,AP,YSR KADAPA
471,230361,KANUMA,230361,516503,BRAHMAMGARIMATTAM,14.87053,78.84421,AP,YSR KADAPA
472,1669805623923,PEDALANKA,1669805623923,521344,KALIDINDI,16.44092,81.38287,AP,ELURU
473,230367,ZOUKUPALLY,230367,516503,BRAHMAMGARIMATTAM,14.90934,78.92252,AP,YSR KADAPA
474,1668588584440,EELAMPUDI,1668588584440,534208,BHIMAVARAM,16.497080,81.484120,AP,WEST GODAVARI
475,230366,YERRANEELLA KUNTA,230366,516503,BRAHMAMGARIMATTAM,14.70916,78.87234,AP,YSR KADAPA
476,1646836739519,VIKKIRALAPETA,1646836739519,523105,KANDUKUR,15.2920698,79.9205916,AP,SPS NELLORE
477,1687769347250,DEVALAMPETA,1687769347250,517408,PALAMANER,13.246710,78.832710,AP,CHITTOOR
478,230364,SOMIREDDIPALLE,230364,516503,BRAHMAMGARIMATTAM,14.835828,78.90659,AP,YSR KADAPA
479,230371,VELDURTHI,230371,516339,VEERAPUNAYUNIPALLE,14.573682,78.450642,AP,YSR KADAPA
480,230370,KARIGANIPALLE,230370,515765,KUNDURPI,14.34435,77.11331,AP,ANANTAPURAMU
481,230369,UPPARAPALLI,230369,516504,RAMAPURAM,13.6084467,79.3967483,AP,ANNAMAYYA
482,1676129403767,SUB STATION ,1676129403767,531021,PARAVADA,17.62826,83.0895,AP,ANAKAPALLI
483,230378,AMRUTHANAGAR,230378,516360,PRODDATUR,14.767115,78.580617,AP,YSR KADAPA
484,1668650238243,CHIRUMANDODDI ,1668650238243,518347,ASPARI,15.515230,77.368820,AP,KURNOOL
485,1001,ATTILI,1001,534134,ATTILI,16.686989,81.608361,AP,WEST GODAVARI
486,230376,VEDURUR,230376,516355,CHAPAD,14.665436,78.663436,AP,YSR KADAPA
487,1679202089558,K.M.STONE,1679202089558,516174,ALUR,,,AP,KURNOOL
488,230380,LINGAPURM,230380,516362,PRODDATUR,14.736684,78.596594,AP,YSR KADAPA
489,230387,NADIMPALLI,230387,517257,CHOWDEPALLE,13.466465,78.771866,AP,CHITTOOR
490,230385,BOYAKONDA,230385,517257,CHOWDEPALLE,13.494936,78.634014,AP,CHITTOOR
491,230384,PEDDAVELAGATUR,230384,517408,PEDDAPANJANI,13.26941,78.59515,AP,CHITTOOR
492,230390,DIGUVAPALLALU,230390,517582,VEDURUKUPPAM,13.36824,79.31791,AP,CHITTOOR
493,230388,SAKAMVARIPALLE,230388,517277,KALIKIRI,13.6760900,78.7273900,AP,ANNAMAYYA
494,230395,VITTALAM,230395,517299,VAYALPADU,13.634949,78.645857,AP,ANNAMAYYA
495,230393,PEDDAMANDYAM,230393,517297,PEDDAMANDYAM,13.93065,78.54898,AP,ANNAMAYYA
496,230398,YEMBADI,230398,517305,RAMASAMUDRAM,13.3636800,78.5149870,AP,ANNAMAYYA
497,1676221613280,VELDIPADU MILL,1676221613280,521311,UNGUTUR,16.510524,80.858085,AP,KRISHNA
498,230403,KOSUVARIPALLE,230403,517350,THAMBALLAPALLE,13.7483600,78.4362780,AP,ANNAMAYYA
499,230402,KOTHAROAD,230402,517126,PENUMURU,13.339254,79.195596,AP,CHITTOOR
500,230401,GODUGUVARIPALLE,230401,517325,PEDDA THIPPASAMUDRAM,13.6598970,78.1886840,AP,ANNAMAYYA
501,230407,KALAVAPALLE,230407,517390,MULAKALACHERUVU,13.91241,78.34229,AP,ANNAMAYYA
502,1031,AVANIGADDA,1031,521121,AVANIGADDA,16.025495,80.916881,AP,KRISHNA
503,230409,PALLIKUPPAM,230409,517401,RAMAKUPPAM,12.913942,78.555582,AP,CHITTOOR
504,230415,CHINNAPURAM,230415,517415,BAIREDDIPALLE,13.150707,78.605682,AP,CHITTOOR
505,230413,MUSALIMADUGU,230413,517408,PALAMANER,13.15374,78.778063,AP,CHITTOOR
506,230419,MITTAPALLI,230419,517408,BAIREDDIPALLE,13.141206,78.569470,AP,CHITTOOR
507,230418,LAKSHMINARASIMHAPURAM,230418,517421,PALASAMUDRAM,13.191908,79.333844,AP,CHITTOOR
508,230416,KADAPANATHAM,230416,517415,BAIREDDIPALLE,13.0561,78.59696,AP,CHITTOOR
509,230423,RAMAPURAM,230423,517415,BAIREDDIPALLE,13.07592,78.32105,AP,CHITTOOR
510,1674725763324,MAYALURU1,1674725763324,518155,UYYALAWADA,15.107144,78.35758,AP,NANDYAL
511,230427,MANGALAPALLE,230427,517236,BANGARUPALEM,13.227037,78.990520,AP,CHITTOOR
512,1668532484564,BANIGANDLAPADU,1668532484564,507202,KHAMMAM,16.863296,80.476413,TS,YERRUPALEM
513,230425,BARLAPALLE,230425,517325,MADANAPALLE,13.546720,78.425130,AP,ANNAMAYYA
514,1051,BOTLAGUDUR,1051,523110,PAMUR,15.086449,79.522176,AP,PRAKASAM
515,230431,MAGANDLAPALLE,230431,517247,PUNGANUR,13.334670,78.518860,AP,CHITTOOR
516,230430,ETAVAKILI,230430,517417,PUNGANUR,13.374470,78.526000,AP,CHITTOOR
517,230428,THUMBA KUPPAM,230428,517416,BANGARUPALEM,13.256935,78.897188,AP,CHITTOOR
518,230433,NARASIMHAPURAM,230433,517421,PALASAMUDRAM,13.144806,79.331782,AP,CHITTOOR
519,1668942008596,K.M.STONE,1668942008596,518344,KOWTHALAM,15.41744,77.22938,AP,KURNOOL
520,230432,RAMASAMUDRAM,230432,517417,RAMASAMUDRAM,13.36732,78.42357,AP,ANNAMAYYA
521,1668664279427,KMSTONE,1668664279427,518220,PEAPALLY,15.8561560,78.2868170,AP,NANDYAL
522,230439,POGURUPALLE X,230439,517425,GUDUPALLE,12.784658,78.292448,AP,CHITTOOR
523,230438,POGURUPALLE,230438,517423,GUDUPALLE,12.844118,78.285152,AP,CHITTOOR
524,1061,B.KOTHA KOTA,1061,517370,B KOTHAKOTA,13.657883,78.26223291,AP,ANNAMAYYA
525,230437,NADIMPALLI,230437,517192,ROMPICHERLA,13.698621,79.022662,AP,CHITTOOR
526,230442,KOPPALAVARIPALLI,230442,517424,KURABALAKOTA,14.0963430,78.5929920,AP,ANNAMAYYA
527,1666706082497,K.M.STONE,1666706082497,534312,KOYYALAGUDEM,15.41744,77.22938,AP,ELURU
528,230440,CHELDIGANIPALLE,230440,517425,RAMAKUPPAM,12.931150,78.452230,AP,CHITTOOR
529,230447,KANAMUNDARAPALLI,230447,517126,PENUMURU,13.402162,79.169668,AP,CHITTOOR
530,230445,DASEGOWNIYUR,230445,517425,KUPPAM,12.763287,78.398487,AP,CHITTOOR
531,230444,DARAMVARIPALLE,230444,517425,MULAKALACHERUVU,13.74552,78.3205,AP,ANNAMAYYA
532,230450,SINGASAMUDRAM,230450,517425,RAMAKUPPAM,12.8287100,78.5032280,AP,CHITTOOR
533,1668940992791,BHIMAVARAM,1668940992791,521178,JAGGAYYAPETA,16.901242,80.178798,AP,NTR
534,230449,KRISHNADASANAPALLE,230449,517425,KUPPAM,12.737250,78.303700,AP,CHITTOOR
535,230448,KANGUNDI,230448,517425,KUPPAM,12.769005,78.434062,AP,CHITTOOR
536,1668664836509,AYYAPURAJUPALEM,1668664836509,523271,CHIMAKURTHI,15.36662,79.72388,AP,PRAKASAM
537,230452,VENGALARAJUKUPPAM,230452,517599,PALASAMUDRAM,13.207199,79.376471,AP,CHITTOOR
538,230459,GURAVARAJUPALLI,230459,517501,RENIGUNTA,13.642958,79.518099,AP,TIRUPATHI
539,230457,PATHIKONDA,230457,517432,GANGAVARAM,13.195472,78.648816,AP,CHITTOOR
540,230460,ITHEPALLE,230460,517501,CHANDRAGIRI,13.581604,79.2797,AP,TIRUPATHI
541,230466,SREERANGARAJAPURAM,230466,517561,SEETHARAMAPURAM,13.310788,79.360269,AP,SPS NELLORE
542,230465,S.S.KONDA,230465,517421,SRIRANGARAJAPURAM,13.256330,79.268700,AP,CHITTOOR
543,230464,PULLUR,230464,517167,SRIRANGARAJAPURAM,13.24387,79.33514,AP,CHITTOOR
544,230469,VEERAKANELLORE,230469,517167,GANGADHARA NELLORE,13.261531,79.237306,AP,CHITTOOR
545,230474,THATIMAKULAPALLI,230474,517167,SEETHARAMAPURAM,13.288052,79.302969,AP,SPS NELLORE
546,230473,CHINTHAGUMPALLAPALLI,230473,517124,IRALA,13.320370,79.021484,AP,CHITTOOR
547,230479,GANUGAPENTA,230479,517112,PAKALA,13.503940,79.147240,AP,TIRUPATHI
548,1101,BADARALA,1101,534452,KAMAVARAPUKOTA,16.93014,81.112895,AP,ELURU
549,1668935324057,K.M.STONE,1668935324057,518360,YEMMIGANUR,15.41744,77.22938,AP,KURNOOL
550,230481,JANDLA,230481,517214,PILER,13.7005640,78.9703670,AP,ANNAMAYYA
551,230480,GUDAREVUPALLE,230480,517214,PILER,13.6690760,78.9548790,AP,ANNAMAYYA
552,230487,KALAKADAKOTHAPALLE,230487,517236,KALAKADA,13.80977,78.77369,AP,ANNAMAYYA
553,230484,PALLALU,230484,517582,VEDURUKUPPAM,13.367483,79.311968,AP,CHITTOOR
554,1668611753182,THIMMAPURAM VENKATAREDDIPALLI,1668611753182,515110,PENUKONDA,14.114240,77.603960,AP,SRI SATHYA SAI
555,230490,MEDIKURTHI,230490,517237,KALIKIRI,13.699586,78.7933,AP,ANNAMAYYA
556,230489,GADI,230489,517237,KALIKIRI,13.735005,78.795574,AP,ANNAMAYYA
557,230495,KANDADU,230495,517619,YERPEDU,13.64065,79.62722,AP,TIRUPATHI
558,1666705492667,VARADHARAJAPURAM,1666705492667,534216,GANAPAVARAM,16.70651,81.4932,AP,ELURU
559,230494,VENKATAPURAM,230494,517520,RENIGUNTA,13.665919,79.498345,AP,TIRUPATHI
560,1121,BADVEL,1121,516227,BADVEL,14.736182,79.060940,AP,YSR KADAPA
561,1700202880533,NANDIHILLS,1700202880533,562103,,,,KA,CHIKBALLAPUR
562,230501,CHINNAPANDUR,230501,517541,VARADAIAHPALEM,13.542670,79.941430,AP,TIRUPATHI
563,230507,SEETHARAMA PURAM,230507,517571,VADAMALAPETA,13.519920,79.487590,AP,TIRUPATHI
564,230505,KALLURU,230505,517551,VADAMALAPETA,17.20013,80.55002,AP,TIRUPATHI
565,230504,ANJERAMMA GUDI,230504,517571,VADAMALAPETA,13.515730,79.534440,AP,TIRUPATHI
566,1131,BAGEPALLY X RD,1131,561207,BAGEPALLI,13.782543,77.77553,KA,CHIKBALLAPUR
567,230511,KANTEVARIPALLE,230511,517350,KURABALAKOTA,13.66264,78.44869,AP,ANNAMAYYA
568,230510,KAMMAVARIPALLI,230510,517561,RAMASAMUDRAM,13.44729,78.48532,AP,ANNAMAYYA
569,1678101476175,KONEMPALEM,1678101476175,531011,ATCHUTAPURAM,17.54853,82.98319,AP,ANAKAPALLI
570,1603474150298,WADAPALLY,1603474150298,,,,,TS,HO
571,230508,VADDIPALLE,230508,517561,THAMBALLAPALLE,13.579326,79.406245,AP,ANNAMAYYA
572,1397824958966,VIT VELLUR,1397824958966,632014,VELLORE,12.96818,79.155899,TN,VELLORE
573,1688020484132,RELLI LAKE,1688020484132,530048,VISAKHAPATNAM URBAN,17.809280,83.329820,AP,VISAKHAPATNAM
574,230523,KUMBARLAPALLE,230523,517424,VENKATAGIRIKOTA,13.00161,78.526206,AP,CHITTOOR
575,230522,TADUKU,230522,517571,PUTTUR,13.497770,79.532470,AP,TIRUPATHI
576,230520,SWASTHIK NAGAR,230520,517131,THAVANAMPALLE,13.3097360,78.8918620,AP,CHITTOOR
577,230527,VIJAYA PURAM,230527,517586,VIJAYAPURAM,13.27113,79.69935,AP,CHITTOOR
578,230526,KSHURIKAPURAM,230526,517586,VIJAYAPURAM,13.2917930,79.7107020,AP,CHITTOOR
579,1668629432298,PENAMARRU,1668629432298,522261,VEMURU,16.1337,80.77135,AP,BAPATLA
580,1677154745136,GUNADALA PANCHAYATI    SAI MESS DN,1677154745136,520004,VIJAYAWADA URBAN,16.51923,80.66682,AP,NTR
581,230528,AGARAMANGALAM,230528,517587,GANGADHARA NELLORE,13.248635,79.227962,AP,CHITTOOR
582,230535,KANNAVARAM,230535,517589,SATYAVEDU,13.43601,79.87428,AP,TIRUPATHI
583,230537,PROJECT,230537,517588,THAMBALLAPALLE,12.9498360,79.1370370,AP,ANNAMAYYA
584,1671539763847,HALAKUNDI,1671539763847,583101,BALLARY,15.0844040,76.8839760,KA,KARNATAKA
585,230541,PULIGUNDRAM,230541,517589,PICHATUR,13.3480290,79.8232280,AP,TIRUPATHI
586,230540,NAGALAPURAM,230540,517589,NAGALAPURAM,13.39072,79.79342,AP,TIRUPATHI
587,1671376953537,SEETHARAMPURAM,1671376953537,523227,SEETHARAMAPURAM,15.01577,79.13781,AP,SPS NELLORE
588,230547,EDUGATLU,230547,517590,NAGARI,13.276958,79.535780,AP,CHITTOOR
589,230544,SIGARAPALLI X ROAD,230544,517589,PAKALA,13.4717880,79.1187330,AP,TIRUPATHI
590,1171,BAKARAPET NEAR PILER,1171,517194,CHINNAGOTTIGALLU,13.653263,79.157704,AP,TIRUPATHI
591,230554,SINGARAPURAM,230554,517425,KUPPAM,12.635580,78.396011,AP,CHITTOOR
592,230552,GURAKAMPALLI,230552,517592,KAMBHAMVARIPALLE,13.8666370,78.9406700,AP,ANNAMAYYA
593,1181,BAKARAMPET,1181,517350,KURABALAKOTA,14.414752,78.954398,AP,ANNAMAYYA
594,230557,GANGULAPUDI,230557,517620,SRIKALAHASTHI,13.75178,79.70711,AP,TIRUPATHI
595,230556,YERRAGUNTLAPALLE,230556,517214,PILER,13.626258,78.967662,AP,ANNAMAYYA
596,1690286377411,GUJJARAHALLI,1690286377411,572116,LINGADAHALLI,14.110915,77.053128,KA,TUMKUR
597,230561,PONNETIPALEM,230561,517325,MADANAPALLE,13.57367,78.45962,AP,ANNAMAYYA
598,230565,NARAYANAREDDYPALLI,230565,517126,PUTHALAPATTU,13.400811,79.155039,AP,CHITTOOR
599,230571,KATHIRIPALLI,230571,517582,KARVETI NAGARAM,13.366016,79.390148,AP,CHITTOOR
600,1668627449052,TOLL GATE CHOLASAMUDRAM,1668627449052,515331,LEPAKSHI,13.811528,77.5762,AP,SRI SATHYA SAI
601,230569,KM STONE,230569,517581,MULAKALACHERUVU,,,AP,ANNAMAYYA
602,1668621468856,PENCHAKALAPADU NAGULAPURAM,1668621468856,518003,KODUMUR,15.75365,77.89553,AP,KURNOOL
603,230575,CHINNATHIPPASAMUDRAM,230575,517319,MADANAPALLE,13.645760,78.567660,AP,ANNAMAYYA
604,1494667674828,VALLABHAPURAM-302,1494667674828,522308,KOLLIPARA,16.352399,80.721863,AP,GUNTUR
605,1669375568830,ORURU PETA,1669375568830,517586,NINDRA,13.341437,79.741438,AP,CHITTOOR
606,230582,TIRUCHANUR X,230582,517503,TIRUPATI RURAL,13.611300,79.442190,AP,TIRUPATHI
607,230581,THARIGONDA,230581,517503,GURRAMKONDA,13.69382,78.62786,AP,ANNAMAYYA
608,230586,TIRUMALAREDDIGARIPALLE,230586,517504,RAMASAMUDRAM,13.3832,78.42483,AP,ANNAMAYYA
609,230584,BALAMVARIPALLI,230584,517214,PILER,13.592905,78.924674,AP,ANNAMAYYA
610,1211,BALANAGAR,5231,500037,KUKATPALLI,17.467377,78.44455,TS,MEDCHAL
611,230591,TADIGALLU,230591,517507,SRINIVASAPURA,13.4346650,78.2106320,KA,KOLAR
612,230595,KONDAMANAYUNIPALLE,230595,518122,OWK,15.13707,78.04511,AP,NANDYAL
613,230593,KUKKALDODDI,230593,517619,YERPEDU,13.75956,79.442727,AP,TIRUPATHI
614,230599,ANKIREDDY PALLI,230599,518123,KOLIMIGUNDLA,15.026090,78.047400,AP,NANDYAL
615,1221,BALAPANUR,1221,516484,SIMHADRIPURAM,14.535576,78.198177,AP,YSR KADAPA
616,230598,VEMULAPADU,230598,518124,OWK,15.243383,78.191532,AP,NANDYAL
617,230597,SIVAVARAM,230597,518122,OWK,15.214772,78.191775,AP,NANDYAL
618,230596,KUNUKUNTLA,230596,518122,OWK,15.189039,78.041217,AP,NANDYAL
619,230602,APPALAPURAM,230602,518124,BANAGANAPALLE,15.334520,78.308470,AP,NANDYAL
620,230601,KANAKADRIPALLE,230601,518123,KOLIMIGUNDLA,15.043640,78.075200,AP,NANDYAL
621,230600,ITIKALA,230600,518123,KOLIMIGUNDLA,15.053373,78.092259,AP,NANDYAL
622,230607,MANGAMPETA,230607,518124,OWK,15.310065,78.088078,AP,NANDYAL
623,1676357979122,MILE STONE-PEDDAPURAM,1676357979122,521180,VEERULAPADU,,,AP,NTR
624,1668871345458,PENAKACHERLA DAM,1668871345458,515731,GARLADINNE,14.8799460,77.4335850,AP,ANANTAPURAMU
625,230606,KOTTALA,230606,518124,OWK,15.245480,78.144055,AP,NANDYAL
626,230605,JOLAPURAM,230605,518124,BANAGANAPALLE,15.329630,78.149850,AP,NANDYAL
627,1231,BALIJAKANDRIGA,1231,517125,PALASAMUDRAM,13.221269,79.444032,AP,CHITTOOR
628,230611,BANGLAKUNTA,230611,518134,KOILKUNTLA,15.19274027,78.3326751,AP,NANDYAL
629,230609,TELLAPURI,230609,518124,GOSPADU,15.361230,78.383540,AP,NANDYAL
630,230613,KRISTIPADU,230613,518134,DORNIPADU,15.195990,78.367120,AP,NANDYAL
631,230612,CHINNA KOPPERLA,230612,518124,KOILKUNTLA,15.304432,78.333465,AP,NANDYAL
632,230619,GONAVARAM,230619,518176,PANYAM,15.436092,78.326395,AP,NANDYAL
633,230617,INJEDU,230617,518155,UYYALAWADA,15.088281,78.417513,AP,NANDYAL
634,230616,KAKARAWADA,230616,518155,UYYALAWADA,15.0503460,78.4225560,AP,NANDYAL
635,1689152015387,SAMPATH NAGARAM KONDA GUNTURU,1689152015387,533124,RAJAHMUNDRY RURAL,16.947451,81.850932,AP,EAST GODAVARI
636,230623,BUGGANIPALLE,230623,518206,BETHAMCHERLA,15.473650,78.173526,AP,NANDYAL
637,230622,SANGAPATNAM,230622,518196,OWK,15.15221493,78.14276464,AP,NANDYAL
638,230620,NANDIVARGAM,230620,518176,BANAGANAPALLE,15.4248700,78.3189333,AP,NANDYAL
639,230627,PASUPULA,230627,518220,BANAGANAPALLE,15.326288,78.018208,AP,NANDYAL
640,1251,BANAGANAPALLY,1251,518124,BANAGANAPALLE,15.320742,78.221514,AP,NANDYAL
641,230631,RANGAPURAM_N,230631,518221,PEAPALLY,15.264298,77.814712,AP,NANDYAL
642,230630,PEAPALLY,230630,518221,PEAPALLY,15.23715,77.73968,AP,NANDYAL
643,230629,ENUGUMARRY,230629,518221,PEAPALLY,15.299670,77.789720,AP,NANDYAL
644,230628,RACHERLA,230628,518220,PEAPALLY,15.23914,77.94427,AP,NANDYAL
645,230635,TATIMANKOTHOOR,230635,518222,DHONE,15.450990,77.888510,AP,NANDYAL
646,230633,BONTHIRALLA,230633,518468,KRISHNAGIRI,15.450840,77.810090,AP,KURNOOL
647,230632,TIRUNAMPALLE,230632,518221,DHONE,15.318790,77.738380,AP,NANDYAL
648,230638,AREKAL,230638,518302,ADONI,15.6579460,77.3669030,AP,KURNOOL
649,230637,KARIVEMULA,230637,518225,DEVANAKONDA,15.59789,77.59854,AP,KURNOOL
650,230636,KANAKADINNE,230636,518225,DEVANAKONDA,15.4874140,77.5313290,AP,KURNOOL
651,230642,NAGALAPURAM,230642,518302,PEDDA KADUBUR,13.3864280,79.7938020,AP,KURNOOL
652,230641,KADITHOTA,230641,518302,ADONI,15.6838190,77.2225880,AP,KURNOOL
653,230640,DHANAPURAM,230640,518301,ADONI,15.563220,77.261910,AP,KURNOOL
654,230647,CHINNA KADUBUR,230647,518323,PEDDA KADUBUR,15.724970,77.327510,AP,KURNOOL
655,230646,SATHANUR,230646,518313,KOSIGI,15.94991,77.228,AP,KURNOOL
656,230645,DIDDI,230645,518313,KOSIGI,15.88094,77.18894,AP,KURNOOL
657,230644,BOMMALAPURA,230644,583114,KOSIGI,15.686391,77.053148,AP,KURNOOL
658,230650,MARALI,230650,518333,KOWTHALAM,15.905349,77.089944,AP,KURNOOL
659,230649,MEKADONA,230649,518323,PEDDA KADUBUR,15.742445,77.290181,AP,KURNOOL
660,1668662526327,BPL MODEL SCHOOL,1668662526327,518124,BANAGANAPALLE,15.307722,78.217136,AP,NANDYAL
661,1668664344925,KMSTONE,1668664344925,518220,PEAPALLY,15.8561560,78.2868170,AP,NANDYAL
662,230655,MADHAVARAM,230655,518345,MANTRALAYAM,15.93570058,77.365519884014,AP,KURNOOL
663,230654,CHIRTAPALLE,230654,518344,KOWTHALAM,15.8126380,77.1679390,AP,KURNOOL
664,230652,MACHAPURAM,230652,518343,NANDAVARAM,15.889430,77.431280,AP,KURNOOL
665,230659,LINGAMPALLI X,230659,518308,HOLAGUNDA,15.54641,77.15044,AP,KURNOOL
666,230657,SUGUR,230657,518349,MANTRALAYAM,15.900149,77.380459,AP,KURNOOL
667,230656,PARAMANDODDI,230656,518345,MANTRALAYAM,15.817028,77.312007,AP,KURNOOL
668,230663,SALAKALAKONDA,230663,518348,ADONI,15.5900050,77.3490820,AP,KURNOOL
669,230662,PUTAKALAMARRI,230662,518347,ASPARI,15.5337970,77.5072930,AP,KURNOOL
670,230661,ASPARI,230661,518347,ASPARI,15.476147,77.389913,AP,KURNOOL
671,230660,MUDDATAMAGI,230660,518346,HOLAGUNDA,15.4568440,77.0306040,AP,KURNOOL
672,1440657287578,GOPALLE,1440657287578,517247,CHOWDEPALLE,13.3881220,78.6183250,AP,CHITTOOR
673,230666,CHINTHAKUNTA,230666,518348,HALAHARVI,15.23994,77.15374,AP,KURNOOL
674,1668805593119,SB NAGAR B.KOTTALA,1668805593119,583101,BALLARY,15.03221,76.965622,KA,KARNATAKA
675,1291,BANSWADA,1291,,,,,TS,
676,1593431161755,PANDURU,1593431161755,533005,KAKINADA RURAL,17.05530,82.25107,AP,KAKINADA
677,230671,MUGUTHI,230671,518343,NANDAVARAM,15.797051,77.472896,AP,KURNOOL
678,230670,DHARMAPURAM,230670,518360,NANDAVARAM,15.1467030,77.6544790,AP,KURNOOL
679,230669,BODI BANDA CHANNAPURAM,230669,518350,YEMMIGANUR,15.704596,77.422519,AP,KURNOOL
680,230668,PULIKONDA,230668,518465,DEVANAKONDA,15.470232,77.575857,AP,KURNOOL
681,230673,DUDEKONDA,230673,518380,PATTIKONDA,15.4624610,77.5253000,AP,KURNOOL
682,230672,YERRAKOTA,230672,518360,YEMMIGANUR,15.749927,77.541221,AP,KURNOOL
683,230677,RATANA,230677,518390,TUGGALI,15.356970,77.523400,AP,KURNOOL
684,1668871853073,MEDIPALLE,1668871853073,517325,MADANAPALLE,13.52598,78.39897,AP,ANNAMAYYA
685,230683,AREDIGUNTA,230683,517642,RAMASAMUDRAM,13.265540,78.542570,AP,ANNAMAYYA
686,1592644277397,TEMBURU,1592644277397,532201,PATHAPATNAM,18.63145,84.12682,AP,SRIKAKULAM
687,1468675143570,KOSIGI,1468675143570,518313,KURNOOL,15.8569383,77.2416000,AP,KURNOOL
688,230690,BODIREDDY KANDRIGA,230690,517643,KVB PURAM,13.550028,79.742656,AP,TIRUPATHI
689,1492774540337,VETLAPALEM,6161,533434,SAMALKOT,17.0218870,82.1357620,AP,KAKINADA
690,1668655236927,PACHUR,1668655236927,635854,TIRUPATTUR,12.594940,78.46300,TN,TIRUPPATUR
691,230689,PUTTERI,230689,517642,BUCHINAIDU KANDRIGA,13.7848940,79.8431590,AP,TIRUPATHI
692,230694,VEMULAPUDI,230694,517643,KVB PURAM,13.554376,79.700131,AP,TIRUPATHI
693,1669203583205,GARUVUPALEM,1669203583205,522213,CHEBROLE,16.241690,80.570540,AP,GUNTUR
694,230698,KURNOOL O B S,230698,518001,KURNOOL,15.83378,78.05221,AP,KURNOOL
695,1321,BANTUMILLI,1321,521324,BANTUMILLI,16.369543,81.272258,AP,KRISHNA
696,1668588075830,KALAVAPUDI,1668588075830,588743,KALLA,16.46202,81.38815,AP,WEST GODAVARI
697,230703,H.KOTTALA,230703,518010,ORVAKAL,15.653356,78.1762660,AP,KURNOOL
698,230702,MAMIDALAPADU,230702,518004,KURNOOL,15.853980,78.014360,AP,KURNOOL
699,230701,NERAVADA,230701,518467,GUDUR,15.791650,77.953350,AP,KURNOOL
700,230707,SIDDEPALLE,230707,518422,ATMAKUR K,15.849425,78.618853,AP,NANDYAL
701,230705,CHINNARUTLA,230705,518101,SRISAILAM,16.041970,78.955580,AP,NANDYAL
702,1331,BAPATLA,1331,522101,BAPATLA,15.90847,80.47868,AP,BAPATLA
703,230704,KANNAMADAKALA,230704,518010,ORVAKAL,15.704320,78.187370,AP,KURNOOL
704,230711,MITTAKANDALA,230711,518442,PAMULAPADU,15.8044800,78.4750250,AP,NANDYAL
705,230710,CHELIMILLA,230710,518442,PAMULAPADU,15.868481,78.496367,AP,NANDYAL
706,230708,VADLA RAMAPURAM,230708,518422,ATMAKUR K,15.918223,78.609486,AP,NANDYAL
707,1668624827766,LAKSHMIPURAM,1668624827766,518218,KALLUR,15.74923878,78.01384762,AP,KURNOOL
708,230714,KALUVA,230714,518462,GUDUR,15.485322,77.047923,AP,KURNOOL
709,1668795813701,ISUKAPADU,1668795813701,534444,KUKUNOOR,17.513539,81.14733,AP,ELURU
710,230713,UPPALA DADIYA,230713,518452,MIDTHUR,15.758580,78.195690,AP,NANDYAL
711,230719,ALWALA,230719,518463,GONEGANDLA,15.7884290,77.6278570,AP,KURNOOL
712,230718,PULAKURTHY,230718,518462,KODUMUR,15.7507301,77.7113325,AP,KURNOOL
713,1341,BARKATPURA,1341,,,17.3948430,78.4982820,TS,
714,230717,PONNAKALLU,230717,518462,GUDUR,15.79789,77.78010,AP,KURNOOL
715,230716,PALDODDI,230716,518462,C BELAGAL,15.88774,77.73851,AP,KURNOOL
716,230723,MACHAPURAM,230723,518464,KODUMUR,15.6567400,77.7169630,AP,KURNOOL
717,1669628885350,VEPACHERLA,1669628885350,515751,ATMAKUR,14.5727770,77.4285590,AP,ANANTAPURAMU
718,230722,KULUMALA,230722,518463,GONEGANDLA,15.739851,77.630661,AP,KURNOOL
719,230720,ERAMPALLI,230720,518463,GONEGANDLA,15.72775,77.63975,AP,KURNOOL
720,230727,CHILLLABANDA,230727,518467,KODUMUR,15.68193,77.85418,AP,KURNOOL
721,230726,K.SINGAVARAM,230726,518466,NANDAVARAM,15.87132,77.79186,AP,KURNOOL
722,230725,PALLEDODDI,230725,518465,DEVANAKONDA,15.5443700,77.5892733,AP,KURNOOL
723,230724,KHYRUPPALA,230724,518347,ASPARI,15.55232,77.46962,AP,KURNOOL
724,1351,BARSI,1351,,,,,MH,
725,230731,NUNUSURALLA,230731,518468,TUGGALI,15.447698,77.684196,AP,KURNOOL
726,1362727324821,BATREPALLI,1362727324821,515581,TALUPULA,14.24784,78.18812,AP,SRI SATHYA SAI
727,1663484955557,SRINIVASA MANGAPURAM,1663484955557,517101,CHANDRAGIRI,13.6113070,79.3264100,AP,TIRUPATHI
728,1668836657831,ARUR,1668836657831,517646,SATYAVEDU,13.50619,80.03538,AP,TIRUPATHI
729,230729,LADDAGIRI,230729,518467,KODUMUR,15.633757,77.892908,AP,KURNOOL
730,230728,SALKAPURAM,230728,518467,KALLUR,15.7840983,77.9529300,AP,KURNOOL
731,230734,SUGALIMITTA,230734,518502,NANDYAL,15.475875,78.519823,AP,NANDYAL
732,1668782985187,YERRAGARUVU,1668782985187,533220,I POLAVARAM,16.667701,82.23715,AP,KONASEEMA
733,230739,THUDICHERLA,230739,518508,JUPADU BUNGALOW,15.76507,78.45133,AP,NANDYAL
734,1361,BARUVA,1361,532263,SOMPETA,18.88957,84.57883,AP,SRIKAKULAM
735,230738,KORRAPOLUR,230738,518508,GADIVEMULA,15.70229,78.42198,AP,NANDYAL
736,230737,SEETHA RAMA PURAM,230737,518502,MAHANANDI,15.43885,78.55152,AP,NANDYAL
737,230736,NARASIMHASWAMY GUDI,230736,518583,MAHANANDI,15.389526,78.669305,AP,NANDYAL
738,230742,CHINDUKURU,230742,518523,GADIVEMULA,15.632112,78.445037,AP,NANDYAL
739,230741,VENKATAPURAM,230741,518563,SIRIVELLA,15.3081765,78.51248965,AP,NANDYAL
740,230740,NALLAGATLA,230740,518510,ALLAGADDA,15.2141100,78.5028840,AP,NANDYAL
741,1674194749717,NAD X ROAD T,1674194749717,530009,VISAKHAPATNAM RURAL,17.745310,83.236940,AP,VISAKHAPATNAM
742,230747,MITNALA,230747,518593,NANDYAL,15.3965070,78.3934790,AP,NANDYAL
743,230746,YELLAVATHULA,230746,518583,RUDRAVARAM,15.3426467,78.6053533,AP,NANDYAL
744,230745,THAMMADAPALLE,230745,518512,MAHANANDI,15.2649130,78.2182800,AP,NANDYAL
745,230744,U.BOLLAVARAM,230744,518502,MAHANANDI,15.477484,78.543184,AP,NANDYAL
746,230751,KABELA-SITARA,230751,520012,VIJAYAWADA URBAN,16.53319,80.60601,AP,NTR
747,230750,MANDLAVANIPALLE,230750,518599,BETHAMCHERLA,15.569140,78.104740,AP,NANDYAL
748,1678959734036,GOLAGAMUDI_TEMPLE,1678959734036,524320,NELLORE,14.354293,79.977464,AP,SPS NELLORE
749,230749,TIPPAREDDYPALLE,230749,518594,RUDRAVARAM,15.19765765,78.58645162,AP,NANDYAL
750,230748,REDDYPALLE,230748,518594,RUDRAVARAM,15.22358314,78.59524745,AP,NANDYAL
751,230754,SITARAKABEL,230754,520012,VIJAYAWADA RURAL,16.53454,80.60598,AP,NTR
752,230752,PAMULA KALWA,230752,521228,VIJAYAWADA RURAL,16.563230,80.621040,AP,NTR
753,230759,AMBAPURAM,230759,520012,VIJAYAWADA RURAL,16.563390,80.623250,AP,NTR
754,230758,VDPM DEPOT,230758,520012,VIJAYAWADA RURAL,16.535071,80.602796,AP,NTR
755,1668621747578,PAMIDI MODEL SCHOOL,1668621747578,515775,PAMIDI,14.96325844,77.60974601,AP,ANANTAPURAMU
756,230756,MADHURANAGARJUNCTION,230756,520003,VIJAYAWADA RURAL,16.522620,80.64449,AP,NTR
757,230763,MADALAVARI GUDEM,230763,521101,GANNAVARAM,16.6145420,80.7198320,AP,KRISHNA
758,230762,GOPURANIPALEM,230762,521002,PAMIDIMUKKALA,16.357170,80.894860,AP,KRISHNA
759,230761,PATHAPADU,230761,520015,VIJAYAWADA RURAL,15.5532010,79.4561220,AP,NTR
760,230760,JAKKAMPUDI X ROAD,230760,520012,G KONDURU,16.581980,80.620110,AP,NTR
761,230767,KODURUPADU,230767,521105,BAPULAPADU,16.607715,80.905294,AP,KRISHNA
762,230764,NIDAMANURU GODOWN,230764,521104,VIJAYAWADA RURAL,16.509566,80.724359,AP,NTR
763,1391,BASARA,1391,,,17.441825,78.401370,TS,
764,230771,PPATNAMXROAD,230771,521101,GANNAVARAM,16.543691,80.794479,AP,KRISHNA
765,230770,SINGANNAGUDEM,230770,521106,BAPULAPADU,16.6654960,80.7703860,AP,KRISHNA
766,230769,REMALLI,230769,521106,BAPULAPADU,16.662166,80.912432,AP,KRISHNA
767,1668644750861,PARAWADA-CINIMA-HALL,1668644750861,531021,PARAVADA,17.620174,83.080079,AP,ANAKAPALLI
768,230775,MALLAVALLI,230775,521111,BAPULAPADU,16.668879,80.888680,AP,KRISHNA
769,230774,JANGAMGUDEM,230774,521201,NUZVID,16.771800,80.902900,AP,ELURU
770,230773,VELERU,230773,521110,BAPULAPADU,16.64941,80.93757,AP,KRISHNA
771,1668818651557,KMS STONE,1668818651557,534451,KAMAVARAPUKOTA,,,AP,ELURU
772,230778,ETIMOGA,230778,521120,NAGAYALANKA,15.902545,80.770958,AP,KRISHNA
773,1668824549710,RAMINEPALLI,1668824549710,515722,RAPTADU,14.5783770,77.6198890,AP,ANANTAPURAMU
774,230776,MANGO RESEARCH CENTER,230776,521111,NUZVID,16.812782,80.846075,AP,ELURU
775,230783,VELPANUR,230783,518533,VELGODE,15.698760,78.510700,AP,NANDYAL
776,230781,LINGAPURAM,230781,518533,BANDI ATMAKUR,15.616902,78.567539,AP,NANDYAL
777,230780,MACHAVARAM,230780,521121,KODUR,16.025820,80.952050,AP,KRISHNA
778,230787,P.KANDUKUR METTA,230787,518543,ALLAGADDA,15.088904,78.518462,AP,NANDYAL
779,230785,KOTA KANDUKURU,230785,518543,ALLAGADDA,15.087886,78.542215,AP,NANDYAL
780,1590728481342,AVIDI X ROAD,1590728481342,533229,KOTHAPETA,16.68252569,81.9049215218635,AP,KONASEEMA
781,1411,BASINENIPALLY,1411,524226,SEETHARAMAPURAM,14.970728,79.207066,AP,SPS NELLORE
782,230784,CHINTA KOMMADINNE,230784,518543,ALLAGADDA,15.063497,78.532076,AP,NANDYAL
783,230791,CHINTALA CHERUVU,230791,518553,CHAGALAMARRI,14.971146,78.634863,AP,NANDYAL
784,230790,SARVAIPALLE,230790,518543,UYYALAWADA,15.092463,78.460884,AP,NANDYAL
785,230789,S.LINGAMDINNE,230789,518543,ALLAGADDA,15.110604,78.481897,AP,NANDYAL
786,230788,PARAIPALLE,230788,518543,ALLAGADDA,15.191932,78.484206,AP,NANDYAL
787,1663851520332,SUGUR,1663851520332,764041,MACHKUND,18.515783,82.613588,OR,KHORDA
788,230795,GOPAVARAM,230795,518583,MAHANANDI,15.42988,78.572432,AP,NANDYAL
789,230794,JEENEPALLE,230794,518573,SIRIVELLA,15.26400,78.4559,AP,NANDYAL
790,230798,NERANIKI-TANDA,230798,518395,HOLAGUNDA,15.477200,77.155010,AP,KURNOOL
791,1421,BATTALA PALLY,1421,515661,BATHALAPALLI,14.514974,77.767396,AP,SRI SATHYA SAI
792,1667895874140,YENIGADALE,1667895874140,563125,CHINTAMANI,13.621573,78.076508,KA,KOLAR
793,230796,HATHI BELGAL,230796,518395,ALUR,15.365631,77.239833,AP,KURNOOL
794,1685516579973,YELAGAPALLI,1685516579973,533339,DEVIPATNAM,17.376737,81.753761,AP,ASR
795,230803,ROLLAPADU,230803,518405,MIDTHUR,15.73728,78.36535,AP,NANDYAL
796,230802,MIDTHUR,230802,518405,MIDTHUR,15.7704500,78.2890040,AP,NANDYAL
797,1670480786558,4 ROAD JUNCTION_JANGALAPALLI,1670480786558,522234,NADENDLA,16.226724,80.170096,AP,PALNADU
798,1668925642671,GOVINDAPALLE METTA,1668925642671,518155,UYYALAWADA,15.074555,78.371914,AP,NANDYAL
799,1668657842133,J PANGULUR,1668657842133,523214,JANAKAVARAMPANGULURU,15.815948,80.109463,AP,BAPATLA
800,230807,GUMMADAPURAM,230807,518422,KOTHAPALLI,15.976609,78.462903,AP,NANDYAL
801,230806,DUDYALA,230806,518422,KOTHAPALLI,15.8818480,78.5451510,AP,NANDYAL
802,230805,BAPANANTHAPURAM,230805,518422,ATMAKUR K,15.856445,78.587680,AP,NANDYAL
803,230804,LAXMAPURAM XROAD,230804,518412,PAGIDYALA,15.90987,78.31993,AP,NANDYAL
804,230811,DECHUPALEM,230811,521178,VATSAVAI,16.94569,80.12962,AP,NTR
805,230810,KURUKUNDA,230810,518422,ATMAKUR K,15.914368,78.582434,AP,NANDYAL
806,230809,KOTHAPALLE,230809,518422,KOTHAPALLI,15.945949,78.545567,AP,NANDYAL
807,230819,GOPINENIPALEM,230819,521190,VATSAVAI,16.9340200,80.1719950,AP,NTR
808,1441,BATTILI,1441,532456,BHAMINI,19.0122983,83.7856799,AP,PP MANYAM
809,230818,NANDALURU,230818,521185,VEERULAPADU,14.2696,79.11211,AP,NTR
810,1668644226772,K.M.STONE DIGUVAMETTA,1668644226772,523357,GIDDALUR,,,AP,PRAKASAM
811,230823,YERRAVARIGUDEM,230823,521213,MUSUNURU,16.946185,80.944714,AP,ELURU
812,230820,GUMMADIDURRU,230820,521190,PENUGANCHIPROLU,16.86814,80.29478,AP,NTR
813,230827,SPINNINGMILL,230827,521139,PENAMALURU,16.46591,80.73104,AP,KRISHNA
814,230826,EDARA X ROAD,230826,521212,AGIRIPALLI,16.654450,80.732400,AP,ELURU
815,1451,BHATTIPROLU,1451,522256,BHATTIPROLU,16.09808,80.78241,AP,BAPATLA
816,230831,KONDAPARVA,230831,521215,VISSANNAPET,16.888760,80.8335810,AP,NTR
817,230830,GOLLAPALLE,230830,521111,NUZVID,16.724651,80.909311,AP,ELURU
818,230829,VEERAPANENIGUDEM,230829,521212,GANNAVARAM,16.602946,80.824337,AP,KRISHNA
819,230828,SURAMPALLE,230828,521212,GANNAVARAM,16.59463,80.72294,AP,KRISHNA
820,230835,MADHAVARAM EAST,230835,521215,A KONDURU,16.893470,80.707540,AP,NTR
821,230834,GANTI PADU X ROAD,230834,521214,CHATRAI,17.001974,80.912493,AP,ELURU
822,230833,TUMMAGUDEM,230833,521213,CHATRAI,16.940258,80.894446,AP,ELURU
823,230832,LOPUDI,230832,521213,MUSUNURU,16.897400,80.945700,AP,ELURU
824,1461,BAYENDER,1461,,,,,MH,
825,230838,KAMBHAMPADU-A KONDURU,230838,521227,A KONDURU,16.9479110,80.6439150,AP,NTR
826,230837,DEEPLA NAGAR,230837,521227,A KONDURU,16.91106,80.64511,AP,NTR
827,230843,DUGGIRALAPADU X ROAD,230843,521229,G KONDURU,16.76412,80.51404,AP,NTR
828,230842,CHEVUTURU MILESTONE,230842,521229,G KONDURU,,,AP,NTR
829,230846,PANTAKALVA,230846,521229,G KONDURU,16.632528,80.61668,AP,NTR
830,230845,MILE STONE,230845,521229,G KONDURU,,,AP,NTR
831,1669966976498,K.M.STONE,1669966976498,523331,DORNALA,15.41744,77.22938,AP,PRAKASAM
832,1471,BAYYARAM,1471,,,,,TS,
833,230851,PULLURU - MILESTONE,230851,521230,MYLAVARAM,,,AP,YSR KADAPA
834,230850,OBULAPURAM,230850,521230,REDDIGUDEM,14.4558390,77.8515710,AP,NTR
835,230849,MORUSUMILLI,230849,521230,MYLAVARAM,16.853190,80.575160,AP,NTR
836,230848,CHANDRAGUDEM-BORRAGUDEM,230848,521230,MYLAVARAM,16.80191,80.63055,AP,NTR
837,1677155793411,HOLY SPIRIT SCHOOL,1677155793411,521135,MOVVA,16.24626,80.91212,AP,KRISHNA
838,1668663984223,KMSTONE,1668663984223,518124,BANAGANAPALLE,15.8561560,78.2868170,AP,NANDYAL
839,230855,PEDA OGIRALA,230855,521245,VUYYURU,16.39357,80.81403,AP,KRISHNA
840,230853,VELVADAM,230853,521230,MYLAVARAM,16.762320,80.661680,AP,NTR
841,230852,PULLURU XROAD,230852,521230,MYLAVARAM,16.835210,80.635200,AP,NTR
842,1481,BEECHPALLY-KRNL,1481,509125,ITIKYAL,16.156600,77.925300,TS,JOGULAMBA GADWAL
843,230857,AMEENAPURAM,230857,521250,PAMIDIMUKKALA,16.303610,80.850140,AP,KRISHNA
844,230862,PEDA YERUKAPADU,230862,521301,GUDIVADA,16.429292,80.977369,AP,KRISHNA
845,1668615161184,KANAKADINNE,1668615161184,518380,PATTIKONDA,15.4874140,77.5313290,AP,KURNOOL
846,230865,PONUKUMADU,230865,521311,UNGUTUR,16.53009,80.89036,AP,KRISHNA
847,230864,PEDA AVUTAPALLE,230864,521286,UNGUTUR,16.558966,80.839429,AP,KRISHNA
848,1668655745013,TIRUPPATUR,1668655745013,635601,TIRUPATTUR,12.496221,78.569584,TN,VELLORE
849,230869,MILE STONE,230869,521321,NANDIVADA,,,AP,KRISHNA
850,230878,VARLAGONDHITIPPA,230878,521324,KRUTHIVENNU,16.351344,81.415413,AP,KRISHNA
851,230881,KODURU,230881,521325,MUDINEPALLE,16.407400,81.077600,AP,ELURU
852,230887,LINGAREDDIPALEM,230887,521328,KODUR,15.98814,81.00166,AP,KRISHNA
853,230886,POLUKONDA,230886,521327,NANDIVADA,16.520209,81.0798310,AP,KRISHNA
854,230890,VADAVALLI,230890,521329,MUDINEPALLE,16.396190,81.189260,AP,ELURU
855,230889,VENUGOPALAPURAM,230889,521328,KODUR,16.055938,81.05525,AP,KRISHNA
856,230895,BHOGIREDDIPALLE,230895,521131,MACHILIPATNAM,16.116568,81.022685,AP,KRISHNA
857,1674452588877,KALAVA,1674452588877,523264,THALLUR,15.664256,79.790740,AP,PRAKASAM
858,230892,PENJENDRA,230892,521330,GUDLAVALLERU,16.3525,81.00937,AP,KRISHNA
859,230898,GOGINENIPALEM,230898,521132,GHANTASALA,16.166933,80.877083,AP,KRISHNA
860,1521,BELLAMPALLY,1521,,,,,TS,
861,1593237680348,KADAVAKOLLU,1593237680348,521164,VUYYURU,16.4141280,80.8543390,AP,KRISHNA
862,230903,EDULAMADDALI,230903,521148,PEDAPARUPUDI,16.412164,80.936498,AP,KRISHNA
863,230907,ROYYURU,230907,521151,THOTLAVALLURU,16.392060,80.738730,AP,KRISHNA
864,230906,EDUPUGALLU,230906,521151,KANKIPADU,16.46185,80.75533,AP,KRISHNA
865,230904,KANKATAVA,230904,521149,GUDUR,16.247046,81.088745,AP,KRISHNA
866,230910,NIBHANUPUDI,230910,521157,PAMARRU,16.277477,80.99417,AP,KRISHNA
867,230909,KANUMURU-MULLAPUDI X ROAD,230909,521256,PAMARRU,16.34147,80.90338,AP,KRISHNA
868,230908,UPPALURU,230908,521151,KANKIPADU,16.493050,80.776870,AP,KRISHNA
869,230914,MILE STONE,230914,521164,VUYYURU,,,AP,KRISHNA
870,230913,BANDARU VANTENA,230913,521163,THOTLAVALLURU,16.355600,80.808880,AP,KRISHNA
871,230912,KOLLAPALEM,230912,521162,GUDUR,16.2015250,81.0312740,AP,KRISHNA
872,1541,BELUGUPPA,1541,515741,BELUGUPPA,14.714874,77.134692,AP,ANANTAPURAMU
873,230918,BHIMAVARAM GATTU,230918,521175,JAGGAYYAPETA,16.8827070,80.1647810,AP,NTR
874,1670668401690,ITUKULA KOTA,1670668401690,534315,POLAVARAM,17.246892,81.599936,AP,ELURU
875,230917,BHIMAVARAM DONKA,230917,521175,JAGGAYYAPETA,16.9173250,80.1743380,AP,NTR
876,230916,VEERULAPADU,230916,521170,VEERULAPADU,16.81914,80.39486,AP,NTR
877,230921,MILESTONE,230921,521175,JAGGAYYAPETA,,,AP,NTR
878,230920,MARRI CHETTU,230920,521175,JAGGAYYAPETA,16.946958,80.107509,AP,NTR
879,230926,POLAMPALLE,230926,521402,VATSAVAI,17.0077,80.1871,AP,NTR
880,230925,LINGALA,230925,521402,VATSAVAI,16.953157,80.218859,AP,NTR
881,1551,BENZ CIRCLE,15881,520010,VIJAYAWADA RURAL,16.4984017,80.652697,AP,NTR
882,230931,PENUGOLANU,230931,521403,GAMPALAGUDEM,16.9760480,80.4378180,AP,NTR
883,230930,MILSTONGGDEM,230930,521403,GAMPALAGUDEM,,,AP,NTR
884,1669627968002,DARSI,1669627968002,523247,DARSI,15.7738830,79.6860470,AP,PRAKASAM
885,230929,MALUGUMADU,230929,521403,GAMPALAGUDEM,16.90437,80.46263,AP,NTR
886,230928,CHALLAGUNDLAVARIPALEM,230928,521403,GAMPALAGUDEM,16.9845560,80.4697460,AP,NTR
887,230935,UNGUTURU,230935,522016,AMARAVATI,16.494075,80.364445,AP,PALNADU
888,1717831266593,TIRUKOILUR,1717831266593,,,,,TN,KALLAKURICHI
889,230932,UMMADIDEVARAPALLE,230932,521401,GAMPALAGUDEM,17.077760,80.408440,AP,NTR
890,230939,ENAMADALA,230939,522019,PRATHIPADU,16.238933,80.324026,AP,GUNTUR
891,1677054361509,SUJATHANAGAR-C2 ZONE,1677054361509,530051,PENDURTHI,17.80125,83.22174,AP,VISAKHAPATNAM
892,230938,CHINALINGAYAPALEM,230938,522019,PRATHIPADU,16.109280,80.441120,AP,GUNTUR
893,230945,MUTTAYAPALEM,230945,522020,BAPATLA,15.885057,80.488612,AP,BAPATLA
894,1571,BESTAVARIPETA,1571,523333,BESTAVARIPETA,15.55075,79.1019,AP,PRAKASAM
895,230951,PALAPARRU,230951,522235,PEDANANDIPADU,16.0616850,80.2863720,AP,GUNTUR
896,230950,KATRAPADU,230950,522235,PEDANANDIPADU,16.084194,80.36655,AP,GUNTUR
897,230948,SANKURATRIPADU,230948,522549,NADENDLA,16.21098,80.2109805,AP,PALNADU
898,230955,PONNEKALLU,230955,522018,TADIKONDA,16.406381,80.401777,AP,GUNTUR
899,230954,AP HIGH COURT,230954,522239,THULLUR,16.52079106984553,80.48795447598465,AP,GUNTUR
900,1393856089892,LANKALAKODERU,1393856089892,534250,PALACOLE,16.52436,81.68203,AP,WEST GODAVARI
901,1581,BETHAMCHERLA,1581,518206,BETHAMCHERLA,15.458258,78.152029,AP,NANDYAL
902,230956,HARISCHANDRAPURAM,230956,522237,THULLUR,16.570251,80.436746,AP,GUNTUR
903,230962,VENKATPALMXRD,230962,522237,THULLUR,16.50468,80.54106,AP,GUNTUR
904,230967,PENUMUDI,230967,522265,REPALLE,16.0338360,80.8668330,AP,BAPATLA
905,1594014574057,DODDIPADU,1594014574057,518004,KALLUR,15.8230790,78.0913820,AP,KURNOOL
906,1591,BHADRACHALAM,1591,507111,BHADRACHALAM,17.67171,80.89137,AP,BHADRADRI KOTHAGUDEM
907,230964,THADIKALAPUDI,230964,522257,BHATTIPROLU,16.110183,80.837710,AP,BAPATLA
908,230971,GURUNADHAPALEM,230971,522314,NIZAMPATNAM,15.94636,80.78847,AP,BAPATLA
909,230970,DUGGIRALA LOCK,230970,522308,DUGGIRALA,16.317860,80.634690,AP,GUNTUR
910,230975,DONEPUDI,230975,522324,KOLLURU,16.149370,80.817780,AP,BAPATLA
911,230974,NIZAMPATNAM LOCK,230974,522314,NIZAMPATNAM,15.903900,80.658616,AP,BAPATLA
912,1668883306123,CHINNAMPALLI,1668883306123,572141,PAVAGADA,14.2829655,77.2466687,KA,TUMKUR
913,230973,KONAPHALAM-KALLIPHALAM,230973,522314,NIZAMPATNAM,15.91685,80.7156,AP,BAPATLA
914,1668648895618,SUGALI METTA,1668648895618,518112,PANYAM,15.536818,78.313404,AP,NANDYAL
915,1601,BHAINSA,1601,,,,,TS,
916,230978,KORU TADIPARRU,230978,522312,AMRUTHALUR,16.1324,80.63495,AP,BAPATLA
917,230977,INTUR,230977,522341,AMRUTHALUR,16.062890,80.625390,AP,BAPATLA
918,230976,KOLLURU-KOLLURU LOCK,230976,522324,KOLLURU,16.18806,80.79886,AP,BAPATLA
919,230982,KOMERAPUDI,230982,522402,SATTENAPALLI,16.354809,80.211935,AP,PALNADU
920,230980,PEDA KONDURU,230980,522305,DUGGIRALA,16.38863,80.68687,AP,GUNTUR
921,1668664968162,GERIGAPALLE,1668664968162,517247,PUNGANUR,13.378630,78.529950,AP,CHITTOOR
922,230986,JADAVALLI X ROAD,230986,522124,PONNUR,16.041909,80.584390,AP,GUNTUR
923,230984,GUDIPUDI,230984,522403,SATTENAPALLI,16.419374,80.218259,AP,PALNADU
924,1611,BHAMINI,1611,532456,BHAMINI,18.909148,83.813421,AP,PP MANYAM
925,230991,KOTHAPALEM DONKA,230991,522201,TENALI,16.23856,80.6958,AP,GUNTUR
926,230995,CHINALINGAYAPALEM,230995,522212,VATTICHERUKURU,16.109280,80.441120,AP,GUNTUR
927,230994,BRAHMANAKODURU X ROAD-VELLALLURU,230994,522124,CHEBROLE,16.160955,80.538082,AP,GUNTUR
928,230993,BONTAPADU X RD,230993,522212,VATTICHERUKURU,16.262400,80.436760,AP,GUNTUR
929,1674121219767,POLYTECHNIC COLLEGE,1674121219767,515411,TADIPATRI,14.891518,77.990624,AP,ANANTAPURAMU
930,1676538076838,MARIKAVALASA COLONY,1676538076838,530048,VISAKHAPATNAM URBAN,17.841740,83.361850,AP,VISAKHAPATNAM
931,230998,JALADI,230998,522233,EDLAPADU,16.130449,80.245977,AP,PALNADU
932,230997,SALAPADU,230997,522212,CHEBROLE,16.25718,80.56304,AP,GUNTUR
933,231010,RAMAKRISHNAPURAM,231010,521344,KALIDINDI,16.47155,81.32819,AP,ELURU
934,231009,BOMMINAMPADU,231009,521343,MUDINEPALLI,16.468839,81.209524,AP,ELURU
935,231008,ALLURU,231008,521343,MUDINEPALLE,16.451372,81.187417,AP,ELURU
936,231014,CHERUVUPALLE,231014,521356,GUDLAVALLERU,16.405801,81.038,AP,KRISHNA
937,231013,VENKATAPURAM,231013,521344,KALIDINDI,16.518210,81.275190,AP,ELURU
938,1674543211886,MADDALAKANA,1674543211886,561207,BAGEPALLI,13.8551981,77.9172579,KA,CHIKBALLAPUR
939,1641,BHAVANI PURAM,1641,520012,VIJAYAWADA RURAL,16.52627,80.59344,AP,NTR
940,231018,MARIYAGUNTA,231018,521366,PEDANA,16.330156,81.133206,AP,KRISHNA
941,1676278615569,MILE STONE VPLM2,1676278615569,521163,THOTLAVALLURU,,,AP,KRISHNA
942,1593682299334,PUTTAGODUGULA FACTORY,1593682299334,533437,PEDDAPURAM,17.081977,82.086824,AP,KAKINADA
943,231016,CHENNURU,231016,521366,PEDANA,16.367410,81.145905,AP,KRISHNA
944,231021,113TALLUR,231021,522529,PHIRANGIPURAM,16.317211,80.233454,AP,GUNTUR
945,231027,MILESTONE,231027,522603,NARASARAOPET,,,AP,PALNADU
946,231026,KAKANI,231026,522603,NARASARAOPET,16.1588883,79.9962250,AP,PALNADU
947,1669633587740,KONDAPALLI X ROAD,1669633587740,533291,RANGAMPETA,17.047674,82.046909,AP,EAST GODAVARI
948,231024,NUDURUPADU,231024,522529,PHIRANGIPURAM,16.279543,80.210295,AP,GUNTUR
949,1651,BHEEMGAL,1651,,,,,TS,
950,1668434997641,TRIPURANTHAKAM BYPASS,1668434997641,523326,TRIPURANTHAKAM,15.993248,79.447721,AP,PRAKASAM
951,231030,MARASAPENTA,231030,522613,VELDURTHI,16.352670,79.274088,AP,PALNADU
952,1668610557697,BEVAHALLI CROSS,1668610557697,563131,MULBAGAL,13.216325,78.462541,KA,KOLAR
953,231028,PETLURIVARIPALEM,231028,522603,NARASARAOPET,16.16654,80.003622,AP,PALNADU
954,231035,MAKALADINNE,231035,522614,BOLLAPALLI,16.339443,79.612220,AP,PALNADU
955,231034,LINGAMGUNTA THANDA,231034,523262,MADDIPADU,15.557188,80.036007,AP,PRAKASAM
956,231033,GANGUPALLI THANDA,231033,522614,BOLLAPALLI,16.202980,79.578680,AP,PALNADU
957,231039,TRIPURAPURAM,231039,522615,NUZENDLA,15.999490,79.789879,AP,PALNADU
958,231038,TRIPURA PURAM,231038,522615,NEKARIKALLU,16.398250,79.933880,AP,PALNADU
959,1685255317245,TILLAKUPPA,1685255317245,533220,I POLAVARAM,16.6372,82.2116,AP,KONASEEMA
960,231037,KUNKALAGUNTA,231037,522615,NEKARIKALLU,16.296901,79.886090,AP,PALNADU
961,231043,TUNGAPADU,231043,522617,ROMPICHERLA,16.2274790,79.9386150,AP,PALNADU
962,231040,CHAKALI KUNTA,231040,522617,ROMPICHERLA,16.336503,79.89892,AP,PALNADU
963,1668795075831,POBBARLAPALLI,1668795075831,515863,BRAHMASAMUDRAM,14.49828,76.87331,AP,ANANTAPURAMU
964,231047,BRAHMANAPALLI,231047,522437,PIDUGURALLA,16.516750,79.830605,AP,PALNADU
965,231046,BOSENAGAR,231046,522647,VINUKONDA,16.034890,79.723548,AP,PALNADU
966,231044,4 TH MILE,231044,522621,MUPPALLA,,,AP,PALNADU
967,231050,BOGGARAM,231050,522658,IPUR,16.188690,79.8245310,AP,PALNADU
968,231048,VITTAMRAJUPALLI,231048,522647,VINUKONDA,16.07194,79.76754,AP,PALNADU
969,231055,GANDIGANUMALA,231055,522663,BOLLAPALLI,16.2966810,79.5718090,AP,PALNADU
970,231053,CHATTUBANDA,231053,522660,NUZENDLA,15.945960,79.737444,AP,PALNADU
971,231052,BAYYAVARAM,231052,523304,NUZENDLA,15.901658,79.644169,AP,PALNADU
972,231059,SOLAYAPALEM,231059,522663,BOLLAPALLI,16.28393,79.56899,AP,PALNADU
973,1668664050484,KMSTONE,1668664050484,518122,OWK,15.8561560,78.2868170,AP,NANDYAL
974,231058,REDDYPALEM,231058,522663,BOLLAPALLI,16.348640,79.745978,AP,PALNADU
975,231057,RAVULAPURAM,231057,522663,BOLLAPALLI,16.259060,79.580985,AP,PALNADU
976,231056,MUGACHINTALAPALEM,231056,522663,BOLLAPALLI,16.158770,79.696058,AP,PALNADU
977,231063,KONDE KANDUKUR,231063,523101,KANDUKUR,15.257550,79.904900,AP,SPS NELLORE
978,231062,GUDIPADU,231062,523111,KANDUKUR,15.38712,79.67637,AP,SPS NELLORE
979,1677485954788,MALKAPURAM,1677485954788,515867,RAYADURG,14.648644,77.030359,AP,ANANTAPURAMU
980,1676540288647,RAJAKODURU,1676540288647,531061,ANAKAPALLI,17.503760,82.913840,AP,ANAKAPALLI
981,231066,CHERUKUR,231066,523109,PONNALURU,15.26361,79.74919,AP,PRAKASAM
982,231065,CHENNIPADU,231065,523109,PONNALURU,15.33542,79.73589,AP,PRAKASAM
983,1691,BHIMADOLU,1691,534425,BHIMADOLU,16.822961,81.262011,AP,ELURU
984,231069,MUNDLAMURIVARI PALEM,231069,523109,PONNALURU,15.27272,79.74194,AP,PRAKASAM
985,1668612113964,KALIPI SESHAPURAM,1668612113964,515124,RODDAM,13.98137,77.44683,AP,SRI SATHYA SAI
986,231074,AGRAHARAM,231074,523112,CHANDRASEKHARA PURAM,15.2221,79.300816,AP,PRAKASAM
987,1668777168377,KYATHAGANI CHERUVU,1668777168377,572136,PAVAGADA,14.31279,77.40579,KA,TUMKUR
988,231072,SUNKIREDDY PALEM,231072,523109,PONNALURU,15.262314,79.735492,AP,PRAKASAM
989,231079,CHIMALAPENTA,231079,523114,LINGASAMUDRAM,15.070034,79.760040,AP,SPS NELLORE
990,1701,BHIMAVARAM,1701,534201,BHIMAVARAM,16.545122,81.529421,AP,WEST GODAVARI
991,231082,VEERA RAGHAVUNI KOTA,231082,523113,LINGASAMUDRAM,15.10601,79.797322,AP,SPS NELLORE
992,231081,MALAKONDARAYUNI PALEM,231081,523116,LINGASAMUDRAM,15.122961,79.762119,AP,SPS NELLORE
993,1669198472405,SESHACHALAPURAM,1669198472405,517422,CHANDRAGIRI,13.123043,79.08246,AP,TIRUPATHI
994,231087,PEDDA IRLA PADU,231087,523117,PEDACHERLO PALLE,15.15433,79.57673,AP,PRAKASAM
995,231091,ADUSUMALLI,231091,523169,PARCHUR,16.01967,80.31599,AP,BAPATLA
996,231090,HANUMOJI PALEM,231090,523167,INKOLLU,15.829740,80.194330,AP,BAPATLA
997,1400587689596,CHEKKAPALLI,1400587689596,521207,MUSUNURU,16.8797630,80.9275590,AP,ELURU
998,231094,THIMIRTHIPADU,231094,523170,KARAMCHEDU,15.88905,80.25559,AP,BAPATLA
999,231093,PUNURU,231093,523169,YEDDANAPUDI,15.9372920,80.1693680,AP,BAPATLA
1000,1668532091761,VELLATURU,1668532091761,521229,G KONDURU,16.6867,80.6456,AP,NTR
1001,231098,PATHAPADU,231098,523182,ONGOLE,15.510580,80.194063,AP,PRAKASAM
1002,231097,DUDDUKUR,231097,523181,INKOLLU,15.744594,80.171061,AP,BAPATLA
1003,231102,PUSAPADU X ROAD,231102,523190,INKOLLU,15.90525,80.21826,AP,BAPATLA
1004,231101,KATAMVARI PALEM,231101,523186,CHINAGANJAM,15.611968,80.238026,AP,BAPATLA
1005,231107,GARIKAPADU,231107,522410,KROSURU,16.501395,80.081039,AP,PALNADU
1006,231106,NARENPADU,231106,522408,MUPPALLA,16.3168526,80.1413986,AP,PALNADU
1007,231105,MUPPALLA,231105,522408,MUPPALLA,16.320557,80.091853,AP,PALNADU
1008,1731,BHOGHAPURAM,1731,535216,BHOGHAPURAM,18.028465,83.492869,AP,VIZIANAGARAM
1009,1668624647815,KOTHAPALLI,1668624647815,515401,GUNTAKAL,14.5770810,78.2583750,AP,ANANTAPURAMU
1010,231111,VANNAYAPALEM,231111,522411,BELLAMKONDA,16.501706,80.014553,AP,PALNADU
1011,1664202161514,POLLURU,1664202161514,507113,CHINTUR,17.85479,81.65553,TS,ASR
1012,231110,MACHAYAPALEM,231110,522411,BELLAMKONDA,16.508804,79.992322,AP,PALNADU
1013,1673624792204,PENTLAVALLI,1673624792204,509105,PENTLAVALLI,,,TS,HO
1014,231115,DAIDA,231115,522415,GURAZALA,16.635858,79.604161,AP,PALNADU
1015,1668869117719,MUPPALAKUNTA,1668869117719,515763,BRAHMASAMUDRAM,14.54617076,77.0418475,AP,ANANTAPURAMU
1016,231112,ANUPALEM,231112,522412,RAJUPALEM,16.468380,79.953660,AP,PALNADU
1017,231119,SIRIPURAM,231119,522401,MEDIKONDURU,16.407289,80.29619,AP,GUNTUR
1018,1674537018727,ALLAGADDA1,1674537018727,518543,ALLAGADDA,15.1318,78.50465,AP,NANDYAL
1019,231118,PASUVEMULA,231118,522426,MACHERLA,16.499816,79.304830,AP,PALNADU
1020,231117,LAXMIBAI TANDA,231117,522426,MACHERLA,16.436322,79.309276,AP,PALNADU
1021,231116,ECONAMPETA,231116,522426,MACHERLA,16.540091,79.380333,AP,PALNADU
1022,1669352974971,DHONE1,1669352974971,518222,DHONE,15.40368,77.87581,AP,NANDYAL
1023,1593674172865,DIWANCHERUVU,12461,533296,RAJANAGARAM,17.046316,81.843845,AP,EAST GODAVARI
1024,231121,CHIRRAVUR,231121,522501,TADEPALLE,16.429741,80.654468,AP,GUNTUR
1025,231127,APSP BETALLIAN,231127,522503,MANGALAGIRI,16.437400,80.586360,AP,GUNTUR
1026,231126,UNDAVALLI CENTRE,231126,522501,TADEPALLE,16.491210,80.601260,AP,GUNTUR
1027,231125,TADEPALLI,231125,522501,TADEPALLE,16.48001,80.6173,AP,GUNTUR
1028,1751,BHUJABALAPATNAM,1751,521340,KAIKALUR,16.57697,81.27253,AP,ELURU
1029,1674624065537,VAGARURU TIMMAPURAM,1674624065537,518345,MANTRALAYAM,15.935709,77.350770,AP,KURNOOL
1030,231128,ATMAKUR,231128,522503,MANGALAGIRI,16.430640,80.581206,AP,GUNTUR
1031,1428566874793,G.L.PURAM,1428566874793,535523,GUMMALAKSHMIPURAM,18.98347,83.68602,AP,PP MANYAM
1032,1761,BHUPALPALLY-HNK,1761,,,,,TS,
1033,231137,MALLAVARAM,231137,523240,PODILI,15.64063,79.62585,AP,PRAKASAM
1034,231146,VELIGANDLA,231146,523241,KONAKANAMITLA,15.3416430,79.3445680,AP,PRAKASAM
1035,231145,NAGARAJU GUNTA,231145,523241,KONAKANAMITLA,15.65727,79.520722,AP,PRAKASAM
1036,1771,BHUTPUR X ROAD,1771,509382,BHUTPUR,16.699891,78.049888,TS,MAHABOOB NAGAR
1037,231151,BELLAMKONDAVARI PALEM,231151,523252,THALLUR,16.4999780,79.3031000,AP,PRAKASAM
1038,231148,PATHAPADU,231148,523246,KONAKANAMITLA,15.55058,79.450435,AP,PRAKASAM
1039,231154,KAKARLA,231154,523253,MARRIPUDI,15.524059,79.751052,AP,PRAKASAM
1040,231152,DOSAKAYALAPADU,231152,523252,THALLUR,15.720883,79.814995,AP,PRAKASAM
1041,231157,GARLAPETA,231157,523415,KANIGIRI,15.419152,79.571391,AP,PRAKASAM
1042,1555597211459,DHENKANAL,23523,,,,,OR,
1043,1668804922363,MANGAMMA CAMP,1668804922363,583101,BALLARY,15.0968530,76.9393190,KA,KARNATAKA
1044,231162,PODILI X ROAD,231162,523273,HANUMANTHUNIPADU,15.5596410,79.3222420,AP,PRAKASAM
1045,231160,PELLUR,231160,523272,ONGOLE,15.457296,80.048154,AP,PRAKASAM
1046,1668476092309,K.M.STONE,1668476092309,524124,TADA,15.41744,77.22938,AP,TIRUPATHI
1047,231165,MADANUR,231165,523280,KOTHAPATNAM,15.361372,80.106739,AP,PRAKASAM
1048,231164,K.UPPALAPADU,7291,523279,KONDAPI,15.3711,79.9249,AP,PRAKASAM
1049,231171,KAREDU RAMP,231171,523292,ULAVAPADU,15.2011750,80.0148800,AP,SPS NELLORE
1050,231170,PADARTHI,231170,523286,KOTHAPATNAM,15.4676,80.18072,AP,PRAKASAM
1051,231169,REDDYPALEM,231169,523281,GUDLURU,15.071320,79.909544,AP,SPS NELLORE
1052,231175,UPPUMAGULUR,231175,523301,BALLIKURAVA,16.074802,80.066859,AP,BAPATLA
1053,1682004941260,EGUVAPUDI,1682004941260,517643,KVB PURAM,13.573127,79.776579,AP,TIRUPATHI
1054,231174,RAJUGARIPALEM,231174,523301,MARTUR,15.9514860,80.1206760,AP,BAPATLA
1055,231173,GANNAVARAM,231173,523301,YEDDANAPUDI,15.965807,80.172045,AP,BAPATLA
1056,231172,PEDDAPATAPU PALEM,231172,523292,ULAVAPADU,15.080919,80.040181,AP,SPS NELLORE
1057,231179,GANGADONA KONDA,231179,523304,KURICHEDU,15.86232,79.5325,AP,PRAKASAM
1058,1511776844476,HIRAMANDALAM,14101,532459,HIRAMANDALAM,18.66691073,83.9504157,AP,SRIKAKULAM
1059,231176,GURIJEPALLI,231176,523302,SANTHAMAGULURU,16.115055,80.046055,AP,BAPATLA
1060,231181,GUDIPADU,231181,523303,BALLIKURAVA,15.975482,79.95311,AP,BAPATLA
1061,231187,MARKAPURAM,231187,523316,MARKAPUR,15.733604,79.268176,AP,PRAKASAM
1062,231186,KOCHERLA KOTA,231186,523315,DONAKONDA,15.83804,79.34107,AP,PRAKASAM
1063,1425477149525,BIGANCHI,1425477149525,,,,,MH,
1064,231190,DEVARAJUGATTU,231190,523320,PEDA ARAVEEDU,15.795496,79.258353,AP,PRAKASAM
1065,231188,BADVEEDU,231188,523320,PEDA ARAVEEDU,15.856430,79.205773,AP,PRAKASAM
1066,231193,PEDDARAVEEDU,231193,523320,PEDA ARAVEEDU,15.8161,79.223354,AP,PRAKASAM
1067,231199,GARAPENTA,231199,523328,PULLALACHERUVU,16.210848,79.431572,AP,PRAKASAM
1068,231203,MADDIRALAPADU,231203,523262,NAGULUPPALAPADU,15.592280,80.084158,AP,PRAKASAM
1069,1452667797452,MUPPALLA-CRL,1452667797452,523181,INKOLLU,15.769300,80.200540,AP,BAPATLA
1070,231202,BOLLAPALLI,231202,523261,MARTUR,15.880182,80.086203,AP,BAPATLA
1071,231201,RAMKURU,231201,523260,MARTUR,15.9060010,80.0445620,AP,BAPATLA
1072,231200,KONANKI,231200,523260,MARTUR,15.9215,80.07714,AP,BAPATLA
1073,231207,JUVVI GUNTA,231207,523270,MARRIPUDI,15.440112,79.725116,AP,PRAKASAM
1074,231206,THALLUR,231206,523264,THALLUR,15.73803,79.88159,AP,PRAKASAM
1075,1831,BIKKAVOLU,1831,533343,BIKKAVOLU,16.964337,82.045743,AP,EAST GODAVARI
1076,231204,ILAPAVULUR,231204,523263,CHIMAKURTHI,15.68096,79.9165,AP,PRAKASAM
1077,231211,MANIKESWARAM X ROAD,231211,523201,ADDANKI,15.763960,79.999220,AP,BAPATLA
1078,231210,JAGGARAJUPALEM,231210,523271,MARRIPUDI,15.37373,79.73178,AP,PRAKASAM
1079,1674285520286,DUGUTTA,1674285520286,507134,VARARAMACHANDRAPURAM,17.604879,81.184951,AP,ASR
1080,231209,TATIAKULAPALEM,231209,523270,KONDAPI,15.4421248,79.8164801,AP,PRAKASAM
1081,231214,UPPALAPADU,231214,523201,ADDANKI,15.896038,79.896488,AP,BAPATLA
1082,231219,PANDUVA NAGULA VARAM,231219,523224,VELIGANDLA,15.38229,79.268623,AP,PRAKASAM
1083,231218,MOTUPALLI,231218,523224,VELIGANDLA,15.3390127,79.2880884,AP,PRAKASAM
1084,231220,GANGAVARAM,231220,523225,SANTANUTALAPADU,15.504552,79.919509,AP,PRAKASAM
1085,1701261778349,MUNNAR,1701261778349,685612,DEVIKULAM,,,KL,IDUKKI
1086,231224,KUNAMNENIVARIPALEM,231224,523226,CHIMAKURTHI,15.55167,79.88510,AP,PRAKASAM
1087,231230,RAMESWARAM,231230,523373,KOMAROLU,15.1614530,79.0171730,AP,PRAKASAM
1088,231235,KALAVAKUR,231235,524003,PELLAKURU,13.843914,79.749746,AP,TIRUPATHI
1089,231233,VENKATAGIRI X ROAD _NPT,231233,524002,NAIDUPET,13.961728,79.897004,AP,TIRUPATHI
1090,1593534152761,KODANDARAMAPURAM-EG,1593534152761,,,,,AP,HO
1091,231239,SOUTH MOPUR,231239,524004,NELLORE,14.436151,79.823400,AP,SPS NELLORE
1092,1669966419713,AP MODEL SCHOOL,1669966419713,524132,VENKATAGIRI,13.945549,79.605981,AP,TIRUPATHI
1093,1676271062854,KUDERU X ROAD,1676271062854,521163,THOTLAVALLURU,16.25693,80.84486,AP,KRISHNA
1094,231247,ATAKANITHIPPA,231247,524127,SULLURPETA,13.7242870,80.123371,AP,TIRUPATHI
1095,231248,ARDHAMALA,231248,524129,PELLAKURU,13.786501,79.821020,AP,TIRUPATHI
1096,231263,SUDDAMADUGU THAGELU,231263,524121,SULLURPETA,13.75848,79.89162,AP,TIRUPATHI
1097,231262,PALLAVOLU,231262,524302,MARRIPADU,14.646651,79.357245,AP,SPS NELLORE
1098,1400940603528,PEDAPALAPARRU-GDV,1400940603528,521323,GUDIVADA,16.4289329,81.0560616,AP,KRISHNA
1099,231266,MUNGAMUR,231266,524142,BOGOLE,14.807537,80.018087,AP,SPS NELLORE
1100,231271,MOLAGANUR,231271,524203,VAKADU,14.042213,80.080699,AP,TIRUPATHI
1101,231269,KOMMI @ VADDIPALEM,231269,524201,KONDAPURAM,14.967957,79.762436,AP,SPS NELLORE
1102,231268,KOTHAPATNAM,231268,524411,KOTA,14.140104,80.109324,AP,TIRUPATHI
1103,1668783689134,BHAIRASAMUDRAM,1668783689134,515863,BRAHMASAMUDRAM,14.56750453,76.94499034,AP,ANANTAPURAMU
1104,231273,TALLUR,231273,524142,BOGOLE,14.803453,79.937746,AP,SPS NELLORE
1105,1593443468984,KIRLAMPUDI,1593443468984,533431,KIRLAMPUDI,17.2009410,82.1810910,AP,KAKINADA
1106,231272,MOLAKALAPUDI,231272,524203,CHITTAMUR,13.904402,79.993324,AP,TIRUPATHI
1107,231279,CHINTHALAGUNTA,231279,524222,DUTTALUR,14.814760,79.370650,AP,SPS NELLORE
1108,1670306160873,MILESTONE-ASPT,1670306160873,524304,ANUMASAMUDRAMPETA,,,AP,SPS NELLORE
1109,1564282957957,PENUGUDURU BRIDGE-KKD,1564282957957,533016,KARAPA,16.906069,82.192362,AP,KAKINADA
1110,231283,GATTUPALLE,231283,524223,JALADANKI,14.906344,79.864153,AP,SPS NELLORE
1111,231282,CHINAKRAKA,231282,524223,KALIGIRI,14.845957,79.843349,AP,SPS NELLORE
1112,231284,KRISHNAPADU,231284,524223,JALADANKI,14.718082,79.866291,AP,SPS NELLORE
1113,1668805544572,BENCHIKOTTALA,1668805544572,583101,BALLARY,15.031127,76.966111,KA,KARNATAKA
1114,231290,GUDLURUVARIPALEM,231290,524323,VENKATACHALAM,14.241641,80.032654,AP,SPS NELLORE
1115,231289,NAGIREDDYPALEM,231289,524224,KALIGIRI,14.825227,79.652622,AP,SPS NELLORE
1116,231288,KRISHNAREDDYPALEM,231288,524224,KALIGIRI,14.878251,79.672241,AP,SPS NELLORE
1117,231295,NANDIGUNTA,231295,524228,VINJAMUR,14.851319,79.542921,AP,SPS NELLORE
1118,231293,MASAIPETA,231293,524226,UDAYAGIRI,14.908130,79.321470,AP,SPS NELLORE
1119,231292,SIDDIGUNTAPALEM,231292,524415,VAKADU,14.00073,80.08984,AP,TIRUPATHI
1120,1921,BOBBILI,1921,535558,BOBBILI,18.573138,83.346545,AP,VIZIANAGARAM
1121,231297,EPILAGUNTA,231297,524230,MARRIPADU,14.777248,79.312333,AP,SPS NELLORE
1122,231303,RAMPU,231303,524306,SANGAM,14.578579,79.792376,AP,SPS NELLORE
1123,231302,YELLANTI,231302,524236,NELLORE,14.4768400,79.8160920,AP,SPS NELLORE
1124,231300,TOLLGATE,231300,524121,DORAVARISATRAM,13.743220,80.004044,AP,TIRUPATHI
1125,231306,CHENNURU,231306,524317,DAGADARTHI,14.666730,79.879363,AP,SPS NELLORE
1126,231305,BODIGUDAPADU,231305,524240,BOGOLE,14.738218,79.860186,AP,SPS NELLORE
1127,1931,BODHAN,1931,,,18.6587320,77.8954800,TS,
1128,231309,TADAKALURU,231309,524317,DAGADARTHI,14.647346,79.947238,AP,SPS NELLORE
1129,231308,RAVIGUNTAPALEM,231308,524403,VAKADU,13.942356,80.178323,AP,TIRUPATHI
1130,231315,SIVARAM PURAM,231315,523329,MARKAPUR,15.7381,79.22265,AP,PRAKASAM
1131,231314,MODDULAPALLI,231314,523329,MARKAPUR,15.75205,79.35217,AP,PRAKASAM
1132,231313,KOMATIKUNTA,231313,523329,MARKAPUR,15.753167,79.2264092,AP,PRAKASAM
1133,231312,VENKATA REDDY PALLI,231312,523328,PULLALACHERUVU,16.135506,79.38948,AP,PRAKASAM
1134,1941,BOMMALASATRAM,1941,518501,NANDYAL,15.477639,78.466307,AP,NANDYAL
1135,1686293797100,KONARK,1686293797100,752111,KONARK,19.887584,86.09455,OR,PURI
1136,231317,SAAGALABANDA,231317,523331,DORNALA,16.0345029,78.949431,AP,PRAKASAM
1137,231322,LAKSHMIPURAM,231322,523333,ARDHAVEEDU,15.681708,79.083448,AP,PRAKASAM
1138,231320,SITHANAGULAVARAM,231320,523332,TARLUPADU,15.68871,79.24268,AP,PRAKASAM
1139,1593997567815,MANCHALAKATTA,1593997567815,518508,GADIVEMULA,15.6805813,78.3509408,AP,NANDYAL
1140,1669018558299,D AGRAHARAM ST COLONY,1669018558299,516502,BADVEL,14.718551,78.942579,AP,YSR KADAPA
1141,231326,THATICHERLA MOTU,231326,523356,KOMAROLU,15.380838,79.036727,AP,PRAKASAM
1142,231324,BORE WELL,231324,523346,BESTAVARIPETA,15.33541,79.1227117,AP,PRAKASAM
1143,1951,BOOTHPUR,1951,509382,BHUTPUR,16.70004,78.05013,TS,MAHABOOB NAGAR
1144,231328,ATCHAMPETA,231328,523335,ARDHAVEEDU,15.701625,78.942055,AP,PRAKASAM
1145,231333,KALAGATLA,231333,523370,BESTAVARIPETA,15.545681,79.1268041,AP,PRAKASAM
1146,231332,THAMBALLAPALLE,231332,523369,GIDDALUR,15.3489261,79.0006063,AP,PRAKASAM
1147,231339,BONGARALAPADU,231339,533428,ADDATEEGALA,17.405529,82.03259,AP,ASR
1148,1961,BORRA CAVES  - ANANTHAGIRI,1961,531149,ANANTHAGIRI,18.28084,83.04044,AP,ASR
1149,231337,BANDAMAMILLU,231337,533483,ADDATEEGALA,17.611440,82.131870,AP,ASR
1150,231343,KOTTAMPALEM,231343,533428,ADDATEEGALA,17.42506,82.09417,AP,ASR
1151,1671887897184,PENAMALURU X ROAD,1671887897184,521139,PENAMALURU,16.47128,80.72003,AP,KRISHNA
1152,231341,JALLURU,231341,533428,ADDATEEGALA,17.469498,81.993747,AP,ASR
1153,1676276797386,MILESTONE ,1676276797386,521150,VIJAYAWADA URBAN,,,AP,NTR
1154,1668818996074,KOTHURU,1668818996074,534444,VELERPADU,17.42388,81.2684,AP,ELURU
1155,231349,YETIPALLI,231349,533428,GANGAVARAM,17.45898,81.950371,AP,ASR
1156,1668613261098,KAMMARACHEDDU,1668613261098,518301,ADONI,15.571510,77.245260,AP,KURNOOL
1157,231352,ADDURUVALASA,231352,535522,PARVATHIPURAM,18.78816,83.365261,AP,PP MANYAM
1158,231358,DANDUSURA,231358,535524,GUMMALAKSHMIPURAM,18.913731,83.562409,AP,PP MANYAM
1159,1981,BRAHMAMGARI MATAM,1981,516172,BRAHMAMGARIMATTAM,14.8205250,78.8797020,AP,YSR KADAPA
1160,1664378274451,PALAKOLLU RAILWAY STATION,1664378274451,534260,PALACOLE,16.521649,81.71766,AP,WEST GODAVARI
1161,1668478009138,GOLLALANATTU,1668478009138,524003,CHITTAMUR,13.88121,80.119,AP,TIRUPATHI
1162,231367,UNDRAJAVARAM,231367,534216,UNDRAJAVARAM,16.790093,81.698080,AP,EAST GODAVARI
1163,231366,TADIPARRU,231366,534227,UNDRAJAVARAM,16.788399,81.722352,AP,EAST GODAVARI
1164,231365,PALANGI,231365,534216,UNDRAJAVARAM,16.770621,81.696551,AP,EAST GODAVARI
1165,1991,BRAHMANA CHERUVU,1991,534124,PENUMANTRA,16.652450,81.658910,AP,WEST GODAVARI
1166,231364,MORTHA,231364,534227,UNDRAJAVARAM,16.810864,81.700476,AP,EAST GODAVARI
1167,231371,RAPAKA,231371,534320,IRAGAVARAM,16.7054517,81.7316133,AP,WEST GODAVARI
1168,1669114796209,BANDARLAPALLI,1669114796209,517152,PAKALA,13.458444,79.081269,AP,TIRUPATHI
1169,231374,JONNAVARIGUDEM,231374,534447,JANGAREDDIGUDEM,17.137815,81.209191,AP,ELURU
1170,2001,BRAHMANAKOTKUR,2001,518432,NANDIKOTKUR,15.815579,78.201616,AP,NANDYAL
1171,231377,ROWTHU GUDEM,231377,534448,JEELUGUMILLI,17.205696,81.231748,AP,ELURU
1172,1674544784628,CHIKALAGUTTA,1674544784628,515556,THANAKAL,14.30,78.1833,AP,SRI SATHYA SAI
1173,231382,CHINNIMPETA,231382,533431,PRATHIPADU,17.238240,82.152350,AP,KAKINADA
1174,231380,UTTARAKANCHI,231380,533430,PRATHIPADU,17.3007500,82.2090330,AP,KAKINADA
1175,1488794543507,PUSAPADU,1488794543507,523190,INKOLLU,15.90565,80.21853,AP,BAPATLA
1176,2011,BRAHMANAPALLY-UDG,2011,524230,MARRIPADU,14.742823,79.243253,AP,SPS NELLORE
1177,1669296238480,K M STONE TIMMANAYUNIPETA,1669296238480,561202,PAVAGADA,,,KA,HO
1178,1669020049155,TALUKA OFFICE,1669020049155,518134,KOILKUNTLA,15.225196,78.338280,AP,NANDYAL
1179,231393,CHERUKUMPALEM,231393,533436,RAJAVOMMANGI,17.464288,82.146284,AP,ASR
1180,1666703657248,MOYYERU,1666703657248,534134,ATTILI,16.6991040,81.5651670,AP,WEST GODAVARI
1181,231400,CHAPARAYIBINNIDI,231400,535524,GUMMALAKSHMIPURAM,19.043144,83.585262,AP,PP MANYAM
1182,2031,BRODIPET,2031,522002,GUNTUR,16.30445,80.43404,AP,GUNTUR
1183,231410,MULUGUDA JN,231410,535524,KURUPAM,18.984390,83.582240,AP,PP MANYAM
1184,231413,KHADGAVALASA,231413,535525,GARUGUBILLI,18.768044,83.5140070,AP,PP MANYAM
1185,1668783607103,CHELIMEPALLI,1668783607103,515863,BRAHMASAMUDRAM,14.5710380,76.9121740,AP,ANANTAPURAMU
1186,231423,RAJANAGARAM,231423,534311,BUTTAYAGUDEM,17.194065,81.454969,AP,ELURU
1187,1685525215061,3 PILLARS MTM,1685525215061,521002,MACHILIPATNAM,16.189478,81.123228,AP,KRISHNA
1188,231430,PEDDAPURAM,231430,533437,PEDDAPURAM,17.0752960,82.1434110,AP,KAKINADA
1189,231429,TALLAPALEM,231429,533436,RAJAVOMMANGI,17.625055,82.204218,AP,ASR
1190,231428,NELLIMETLA,231428,533436,RAJAVOMMANGI,17.551514,82.187722,AP,ASR
1191,1671192908629,KALR T WADA,1671192908629,517505,TIRUPATI RURAL,13.591775,79.338345,AP,TIRUPATHI
1192,231446,NEELAKANTAPURAM,231446,535534,KURUPAM,18.66514,83.40324,AP,PP MANYAM
1193,2071,BURAKAYALA KOTA,2071,517351,MULAKALACHERUVU,13.729383,78.352161,AP,ANNAMAYYA
